"geopoint","Daylight_savings_time_flag","Timezone","Longitude","Latitude","State","City","Zip"
"52.227555,-174.19628",1,-10,-174.19628,52.227555,AK,Atka,99547
"51.87957,-176.63675",1,-10,-176.63675,51.87957,AK,Adak,99546
"56.605546,-169.55958",1,-10,-169.55958,56.605546,AK,Saint George Island,99591
"52.785684,-169.19469",1,-10,-169.19469,52.785684,AK,Nikolski,99638
"53.872017,-166.52287",1,-10,-166.52287,53.872017,AK,Unalaska,99685
"57.130894,-170.27203",1,-10,-170.27203,57.130894,AK,Saint Paul Island,99660
"53.883729,-166.5485",1,-10,-166.5485,53.883729,AK,Dutch Harbor,99692
"-7.209975,-170.7716",0,-10,-170.7716,-7.209975,AS,Pago Pago,96799
"21.501722,-158.03543",0,-10,-158.03543,21.501722,HI,Wahiawa,96786
"20.865115,-156.33158",0,-10,-156.33158,20.865115,HI,Makawao,96768
"21.6485,-157.92556",0,-10,-157.92556,21.6485,HI,Laie,96762
"24.859832,-168.021815",0,-10,-168.021815,24.859832,HI,Honolulu,96847
"24.859832,-168.021815",0,-10,-168.021815,24.859832,HI,Honolulu,96837
"19.447717,-155.21012",0,-10,-155.21012,19.447717,HI,Volcano,96785
"20.222668,-155.78664",0,-10,-155.78664,20.222668,HI,Kapaau,96755
"19.101978,-155.76114",0,-10,-155.76114,19.101978,HI,Ocean View,96737
"19.983584,-155.25963",0,-10,-155.25963,19.983584,HI,Laupahoehoe,96764
"21.439867,-157.74772",0,-10,-157.74772,21.439867,HI,M C B H Kaneohe Bay,96863
"19.946758,-155.2086",0,-10,-155.2086,19.946758,HI,Papaaloa,96780
"24.859832,-168.021815",0,-10,-168.021815,24.859832,HI,Honolulu,96836
"24.859832,-168.021815",0,-10,-168.021815,24.859832,HI,Honolulu,96849
"20.771418,-156.45769",0,-10,-156.45769,20.771418,HI,Kihei,96753
"21.501854,-157.87926",0,-10,-157.87926,21.501854,HI,Kaneohe,96744
"24.859832,-168.021815",0,-10,-168.021815,24.859832,HI,Honolulu,96839
"21.3949,-157.74529",0,-10,-157.74529,21.3949,HI,Kailua,96734
"19.800318,-155.10649",0,-10,-155.10649,19.800318,HI,Papaikou,96781
"19.278298,-155.845329",0,-10,-155.845329,19.278298,HI,Honaunau,96726
"21.997746,-159.7187",0,-10,-159.7187,21.997746,HI,Waimea,96796
"24.859832,-168.021815",0,-10,-168.021815,24.859832,HI,Honolulu,96843
"21.403487,-158.01389",0,-10,-158.01389,21.403487,HI,Waipahu,96797
"20.724391,-156.34031",0,-10,-156.34031,20.724391,HI,Kula,96790
"21.98081,-159.37746",0,-10,-159.37746,21.98081,HI,Lihue,96766
"19.307543,-155.88338",0,-10,-155.88338,19.307543,HI,Captain Cook,96704
"21.4603,-158.06446",0,-10,-158.06446,21.4603,HI,Kunia,96759
"19.942301,-155.18112",0,-10,-155.18112,19.942301,HI,Ninole,96773
"21.3017,-158.08174",0,-10,-158.08174,21.3017,HI,Barbers Point N A S,96862
"19.44707,-155.243925",0,-10,-155.243925,19.44707,HI,Volcano,96385
"22.208401,-159.4896",0,-10,-159.4896,22.208401,HI,Hanalei,96714
"21.41345,-157.80575",0,-10,-157.80575,21.41345,HI,Kaneohe,96477
"21.345535,-158.08587",0,-10,-158.08587,21.345535,HI,Kapolei,96707
"20.883951,-156.46579",0,-10,-156.46579,20.883951,HI,Kahului,96732
"24.859832,-168.021815",0,-10,-168.021815,24.859832,HI,Honolulu,96807
"24.859832,-168.021815",0,-10,-168.021815,24.859832,HI,Fort Shafter,96858
"22.148133,-159.31765",0,-10,-159.31765,22.148133,HI,Anahola,96703
"19.947774,-155.78634",0,-10,-155.78634,19.947774,HI,Waikoloa,96738
"19.996769,-155.31153",0,-10,-155.31153,19.996769,HI,Ookala,96774
"21.68762,-157.95903",0,-10,-157.95903,21.68762,HI,Kahuku,96731
"24.859832,-168.021815",0,-10,-168.021815,24.859832,HI,Honolulu,96842
"19.857045,-155.15249",0,-10,-155.15249,19.857045,HI,Hakalau,96710
"20.866638,-156.646667",0,-10,-156.646667,20.866638,HI,Kahului,96733
"22.111837,-159.31283",0,-10,-159.31283,22.111837,HI,Kealia,96751
"21.999721,-159.4776",0,-10,-159.4776,21.999721,HI,Kalaheo,96741
"21.168775,-157.08588",0,-10,-157.08588,21.168775,HI,Hoolehua,96729
"21.979991,-159.512392",0,-10,-159.512392,21.979991,HI,Hanamaulu,96715
"24.859832,-168.021815",0,-10,-168.021815,24.859832,HI,Wake Island,96898
"20.022513,-155.37514",0,-10,-155.37514,20.022513,HI,Paauilo,96776
"24.859832,-168.021815",0,-10,-168.021815,24.859832,HI,Honolulu,96812
"24.859832,-168.021815",0,-10,-168.021815,24.859832,HI,Honolulu,96838
"21.338055,-158.02499",0,-10,-158.02499,21.338055,HI,Ewa Beach,96706
"24.859832,-168.021815",0,-10,-168.021815,24.859832,HI,Honolulu,96845
"19.433152,-155.238743",0,-10,-155.238743,19.433152,HI,Volcano,96885
"21.156174,-157.03622",0,-10,-157.03622,21.156174,HI,Kualapuu,96757
"19.435739,-155.26648",0,-10,-155.26648,19.435739,HI,Hawaii National Park,96718
"22.223635,-159.49025",0,-10,-159.49025,22.223635,HI,Princeville,96722
"21.930922,-159.499342",0,-10,-159.499342,21.930922,HI,Lawai,96765
"21.33743,-157.70599",0,-10,-157.70599,21.33743,HI,Waimanalo,96795
"24.859832,-168.021815",0,-10,-168.021815,24.859832,HI,Honolulu,96828
"20.241109,-155.84459",0,-10,-155.84459,20.241109,HI,Hawi,96719
"21.554467,-157.85108",0,-10,-157.85108,21.554467,HI,Kaaawa,96730
"21.97313,-159.71766",0,-10,-159.71766,21.97313,HI,Kekaha,96752
"22.212733,-159.40787",0,-10,-159.40787,22.212733,HI,Kilauea,96754
"24.859832,-168.021815",0,-10,-168.021815,24.859832,HI,Honolulu,96811
"21.3452,-157.88165",0,-10,-157.88165,21.3452,HI,Honolulu,96819
"20.866638,-156.646667",0,-10,-156.646667,20.866638,HI,Lahaina,96767
"21.946244,-159.65981",0,-10,-159.65981,21.946244,HI,Makaweli,96769
"24.859832,-168.021815",0,-10,-168.021815,24.859832,HI,Honolulu,96827
"24.859832,-168.021815",0,-10,-168.021815,24.859832,HI,Honolulu,96848
"21.300167,-157.84777",0,-10,-157.84777,21.300167,HI,Honolulu,96814
"21.2946,-157.69721",0,-10,-157.69721,21.2946,HI,Honolulu,96825
"20.866638,-156.646667",0,-10,-156.646667,20.866638,HI,Puunene,96784
"21.15058,-157.1977",0,-10,-157.1977,21.15058,HI,Maunaloa,96770
"19.5604,-155.05686",0,-10,-155.05686,19.5604,HI,Kurtistown,96760
"21.408333,-157.9669",0,-10,-157.9669,21.408333,HI,Pearl City,96782
"21.920292,-159.62428",0,-10,-159.62428,21.920292,HI,Kaumakani,96747
"24.859832,-168.021815",0,-10,-168.021815,24.859832,HI,Camp H M Smith,96861
"19.516132,-155.11305",0,-10,-155.11305,19.516132,HI,Mountain View,96771
"20.089087,-155.51679",0,-10,-155.51679,20.089087,HI,Honokaa,96727
"24.859832,-168.021815",0,-10,-168.021815,24.859832,HI,Honolulu,96835
"21.3307,-157.85913",0,-10,-157.85913,21.3307,HI,Honolulu,96817
"19.675386,-155.97588",0,-10,-155.97588,19.675386,HI,Kailua Kona,96740
"24.859832,-168.021815",0,-10,-168.021815,24.859832,HI,Honolulu,96804
"19.494625,-154.9266",0,-10,-154.9266,19.494625,HI,Pahoa,96778
"19.226749,-155.49217",0,-10,-155.49217,19.226749,HI,Pahala,96777
"24.859832,-168.021815",0,-10,-168.021815,24.859832,HI,Honolulu,96809
"19.593456,-155.438015",0,-10,-155.438015,19.593456,HI,Paauhau,96775
"21.630633,-158.07448",0,-10,-158.07448,21.630633,HI,Haleiwa,96712
"20.906999,-156.38202",0,-10,-156.38202,20.906999,HI,Paia,96779
"21.287967,-157.75456",0,-10,-157.75456,21.287967,HI,Honolulu,96821
"19.110687,-155.58738",0,-10,-155.58738,19.110687,HI,Naalehu,96772
"24.859832,-168.021815",0,-10,-168.021815,24.859832,HI,Honolulu,96810
"23.573339,-164.701172",0,-10,-164.701172,23.573339,HI,Kapolei,96709
"21.191665,-156.9818",0,-10,-156.9818,21.191665,HI,Kalaupapa,96742
"19.593456,-155.438015",0,-10,-155.438015,19.593456,HI,Kailua Kona,96745
"21.917153,-159.59407",0,-10,-159.59407,21.917153,HI,Hanapepe,96716
"21.703,-157.996233",0,-10,-157.996233,21.703,HI,Kawela Bay,96371
"24.859832,-168.021815",0,-10,-168.021815,24.859832,HI,Honolulu,96844
"24.859832,-168.021815",0,-10,-168.021815,24.859832,HI,Honolulu,96820
"21.111246,-156.9741",0,-10,-156.9741,21.111246,HI,Kaunakakai,96748
"24.859832,-168.021815",0,-10,-168.021815,24.859832,HI,Honolulu,96830
"24.859832,-168.021815",0,-10,-168.021815,24.859832,HI,Honolulu,96802
"24.859832,-168.021815",0,-10,-168.021815,24.859832,HI,Hickam AFB,96853
"19.112099,-155.798594",0,-10,-155.798594,19.112099,HI,Hawaiian Ocean View,96373
"20.739217,-156.03893",0,-10,-156.03893,20.739217,HI,Hana,96713
"21.572131,-158.13489",0,-10,-158.13489,21.572131,HI,Waialua,96791
"21.389167,-157.93091",0,-10,-157.93091,21.389167,HI,Aiea,96701
"24.859832,-168.021815",0,-10,-168.021815,24.859832,HI,Schofield Barracks,96857
"21.2951,-157.83066",0,-10,-157.83066,21.2951,HI,Honolulu,96826
"20.889294,-156.50497",0,-10,-156.50497,20.889294,HI,Wailuku,96793
"21.31275,-157.82195",0,-10,-157.82195,21.31275,HI,Honolulu,96822
"24.859832,-168.021815",0,-10,-168.021815,24.859832,HI,Honolulu,96824
"19.526845,-155.9215",0,-10,-155.9215,19.526845,HI,Kealakekua,96750
"21.910767,-159.58222",0,-10,-159.58222,21.910767,HI,Eleele,96705
"20.855864,-156.325923",0,-10,-156.325923,20.855864,HI,Pukalani,96788
"19.866007,-155.12172",0,-10,-155.12172,19.866007,HI,Honomu,96728
"21.36425,-157.96316",0,-10,-157.96316,21.36425,HI,Honolulu,96818
"24.859832,-168.021815",0,-10,-168.021815,24.859832,HI,Honolulu,96846
"19.713562,-155.09842",0,-10,-155.09842,19.713562,HI,Hilo,96720
"19.843259,-155.10548",0,-10,-155.10548,19.843259,HI,Pepeekeo,96783
"20.899634,-156.27315",0,-10,-156.27315,20.899634,HI,Haiku,96708
"21.60625,-157.90949",0,-10,-157.90949,21.60625,HI,Hauula,96717
"24.859832,-168.021815",0,-10,-168.021815,24.859832,HI,Honolulu,96801
"19.593456,-155.438015",0,-10,-155.438015,19.593456,HI,Hilo,96721
"21.434246,-158.17092",0,-10,-158.17092,21.434246,HI,Waianae,96792
"19.410727,-155.7478",0,-10,-155.7478,19.410727,HI,Holualoa,96725
"19.593456,-155.438015",0,-10,-155.438015,19.593456,HI,Keauhou,96739
"24.859832,-168.021815",0,-10,-168.021815,24.859832,HI,Honolulu,96806
"20.913335,-156.65765",0,-10,-156.65765,20.913335,HI,Lahaina,96761
"24.859832,-168.021815",0,-10,-168.021815,24.859832,HI,Honolulu,96823
"20.823607,-156.9274",0,-10,-156.9274,20.823607,HI,Lanai City,96763
"24.859832,-168.021815",0,-10,-168.021815,24.859832,HI,Honolulu,96841
"19.625495,-155.01121",0,-10,-155.01121,19.625495,HI,Keaau,96749
"24.859832,-168.021815",0,-10,-168.021815,24.859832,HI,Honolulu,96805
"21.459206,-158.0116",0,-10,-158.0116,21.459206000000002,HI,Mililani,96789
"21.313033,-157.85615",0,-10,-157.85615,21.313033,HI,Honolulu,96813
"20.040191,-155.69999",0,-10,-155.69999,20.040191,HI,Kamuela,96743
"24.859832,-168.021815",0,-10,-168.021815,24.859832,HI,Honolulu,96840
"24.859832,-168.021815",0,-10,-168.021815,24.859832,HI,Pearl Harbor,96860
"24.859832,-168.021815",0,-10,-168.021815,24.859832,HI,Honolulu,96803
"21.910013,-159.48044",0,-10,-159.48044,21.910013,HI,Koloa,96756
"24.859832,-168.021815",0,-10,-168.021815,24.859832,HI,Tripler Army Medical Ctr,96859
"24.859832,-168.021815",0,-10,-168.021815,24.859832,HI,Honolulu,96850
"24.859832,-168.021815",0,-10,-168.021815,24.859832,HI,Wheeler Army Airfield,96854
"22.077472,-159.34463",0,-10,-159.34463,22.077472,HI,Kapaa,96746
"21.284,-157.79925",0,-10,-157.79925,21.284,HI,Honolulu,96816
"21.2782,-157.82199",0,-10,-157.82199,21.2782,HI,Honolulu,96815
"24.859832,-168.021815",0,-10,-168.021815,24.859832,HI,Honolulu,96808
"61.52898,-166.09619",1,-9,-166.09619,61.52898,AK,Hooper Bay,99604
"61.204466,-149.74633",1,-9,-149.74633,61.204466,AK,Anchorage,99504
"60.784804,-151.06473",1,-9,-151.06473,60.784804,AK,Nikiski,99635
"55.875767,-131.46633",1,-9,-131.46633,55.875767,AK,Ketchikan,99950
"61.783788,-165.53972",1,-9,-165.53972,61.783788,AK,Scammon Bay,99662
"66.908604,-156.88828",1,-9,-156.88828,66.908604,AK,Kobuk,99751
"65.021337,-150.50318",1,-9,-150.50318,65.021337,AK,Manley Hot Springs,99756
"60.898967,-162.43712",1,-9,-162.43712,60.898967,AK,Nunapitchuk,99641
"61.570981,-158.88072",1,-9,-158.88072,61.570981,AK,Aniak,99557
"57.48765,-134.57222",1,-9,-134.57222,57.48765,AK,Angoon,99820
"64.842326,-148.02197",1,-9,-148.02197,64.842326,AK,Ester,99725
"61.93605,-162.8834",1,-9,-162.8834,61.93605,AK,Pilot Station,99650
"61.101142,-149.77311",1,-9,-149.77311,61.101142,AK,Anchorage,99516
"65.342744,-166.51023",1,-9,-166.51023,65.342744,AK,Brevig Mission,99785
"60.23458,-151.3934",1,-9,-151.3934,60.23458,AK,Clam Gulch,99568
"60.911003,-149.62708",1,-9,-149.62708,60.911003,AK,Hope,99605
"61.203954,-149.808426",1,-9,-149.808426,61.203954,AK,Anchorage,99512
"68.121828,-145.52768",1,-9,-145.52768,68.121828,AK,Arctic Village,99722
"64.070738,-141.87489",1,-9,-141.87489,64.070738,AK,Chicken,99732
"59.125873,-161.59999",1,-9,-161.59999,59.125873,AK,Goodnews Bay,99589
"64.874591,-146.898195",1,-9,-146.898195,64.874591,AK,Two Rivers,99716
"61.156565,-149.88335",1,-9,-149.88335,61.156565,AK,Anchorage,99518
"59.101934,-160.50353",1,-9,-160.50353,59.101934,AK,Togiak,99678
"57.929664,-152.46085",1,-9,-152.46085,57.929664,AK,Ouzinkie,99644
"61.214877,-149.88617",1,-9,-149.88617,61.214877,AK,Anchorage,99513
"61.402544,-150.57485",1,-9,-150.57485,61.402544,AK,Anchorage,99695
"63.686038,-170.4087",1,-9,-170.4087,63.686037999999996,AK,Savoonga,99769
"66.044094,-154.25703",1,-9,-154.25703,66.044094,AK,Hughes,99745
"63.882081,-160.76294",1,-9,-160.76294,63.882081,AK,Unalakleet,99684
"57.564289,-153.40755",1,-9,-153.40755,57.564289,AK,Kodiak,99697
"58.71163,-157.01746",1,-9,-157.01746,58.71163,AK,South Naknek,99670
"61.556311,-149.89098",1,-9,-149.89098,61.556311,AK,Big Lake,99652
"59.538728,-139.71052",1,-9,-139.71052,59.538728,AK,Yakutat,99689
"55.677232,-132.55624",1,-9,-132.55624,55.677232,AK,Thorne Bay,99919
"70.13346,-143.62436",1,-9,-143.62436,70.13346,AK,Kaktovik,99747
"59.992821,-151.54194",1,-9,-151.54194,59.992821,AK,Ninilchik,99639
"61.898872,-151.51587",1,-9,-151.51587,61.898872,AK,Skwentna,99667
"61.108864,-149.440311",1,-9,-149.440311,61.108864,AK,Anchorage,99523
"60.810509,-161.4219",1,-9,-161.4219,60.810509,AK,Kwethluk,99621
"58.217621,-157.34841",1,-9,-157.34841,58.217621,AK,Egegik,99579
"61.216799,-149.87828",1,-9,-149.87828,61.216799,AK,Anchorage,99501
"60.766603,-161.88006",1,-9,-161.88006,60.766603,AK,Bethel,99559
"61.785228,-161.36476",1,-9,-161.36476,61.785228,AK,Russian Mission,99657
"61.683931,-157.15202",1,-9,-157.15202,61.683931,AK,Sleetmute,99668
"64.947462,-147.856443",1,-9,-147.856443,64.947462,AK,Fairbanks,99708
"59.068709,-158.44407",1,-9,-158.44407,59.068709,AK,Dillingham,99576
"60.474512,-145.40256",1,-9,-145.40256,60.474512,AK,Cordova,99574
"61.154834,-149.82865",1,-9,-149.82865,61.154834,AK,Anchorage,99507
"55.456449,-133.02648",1,-9,-133.02648,55.456449,AK,Craig,99921
"55.941442,-130.0545",1,-9,-130.0545,55.941442,AK,Hyder,99923
"58.38348,-134.197786",1,-9,-134.197786,58.38348,AK,Juneau,99811
"63.657441,-148.83396",1,-9,-148.83396,63.657441,AK,Denali National Park,99755
"61.527953,-165.57029",1,-9,-165.57029,61.527953,AK,Chevak,99563
"61.102912,-160.96325",1,-9,-160.96325,61.102912,AK,Tuluksak,99679
"56.307535,-158.53502",1,-9,-158.53502,56.307535,AK,Chignik Lagoon,99565
"64.948648,-147.535549",1,-9,-147.535549,64.948648,AK,Fairbanks,99710
"64.532616,-165.10883",1,-9,-165.10883,64.532616,AK,Nome,99762
"57.777622,-135.20777",1,-9,-135.20777,57.777622,AK,Tenakee Springs,99841
"61.261518,-149.66336",1,-9,-149.66336,61.261518,AK,Fort Richardson,99505
"66.557586,-152.6559",1,-9,-152.6559,66.557586,AK,Allakaket,99720
"60.343879,-162.66587",1,-9,-162.66587,60.343879,AK,Tuntutuliak,99680
"64.699839,-147.405134",1,-9,-147.405134,64.699839,AK,Fairbanks,99707
"64.464105,-146.91648",1,-9,-146.91648,64.464105,AK,Salcha,99714
"55.123897,-131.56883",1,-9,-131.56883,55.123897,AK,Metlakatla,99926
"58.745436,-156.95331",1,-9,-156.95331,58.745436,AK,Naknek,99633
"61.413717,-149.42644",1,-9,-149.42644,61.413717,AK,Chugiak,99567
"61.310222,-149.51689",1,-9,-149.51689,61.310222,AK,Eagle River,99577
"60.151652,-149.41271",1,-9,-149.41271,60.151652,AK,Seward,99664
"55.555164,-133.07316",1,-9,-133.07316,55.555164,AK,Klawock,99925
"63.376206,-143.35699",1,-9,-143.35699,63.376206,AK,Tanacross,99776
"56.409507,-132.33822",1,-9,-132.33822,56.409507,AK,Wrangell,99929
"55.395359,-131.67537",1,-9,-131.67537,55.395359,AK,Ward Cove,99928
"60.532394,-150.74033",1,-9,-150.74033,60.532394,AK,Sterling,99672
"61.108864,-149.440311",1,-9,-149.440311,61.108864,AK,Anchorage,99521
"55.315003,-162.634",1,-9,-162.634,55.315003,AK,Cold Bay,99571
"64.737306,-155.48769",1,-9,-155.48769,64.737306,AK,Ruby,99768
"66.97172,-160.43016",1,-9,-160.43016,66.97172,AK,Kiana,99749
"69.741023,-163.00861",1,-9,-163.00861,69.741023,AK,Point Lay,99759
"57.578081,-154.36255",1,-9,-154.36255,57.578081,AK,Karluk,99608
"61.19026,-149.89341",1,-9,-149.89341,61.19026,AK,Anchorage,99503
"58.411303,-135.40874",1,-9,-135.40874,58.411303,AK,Juneau,99850
"60.88981,-161.42393",1,-9,-161.42393,60.88981,AK,Akiachak,99551
"65.701858,-156.38713",1,-9,-156.38713,65.701858,AK,Huslia,99746
"57.74663,-152.51142",1,-9,-152.51142,57.74663,AK,Kodiak,99615
"70.215197,-151.02746",1,-9,-151.02746,70.215197,AK,Nuiqsut,99789
"63.135294,-142.5323",1,-9,-142.5323,63.135294,AK,Tetlin,99779
"62.683391,-164.65455",1,-9,-164.65455,62.683391,AK,Alakanuk,99554
"60.863764,-146.68013",1,-9,-146.68013,60.863764,AK,Tatitlek,99677
"62.90813,-160.06675",1,-9,-160.06675,62.90813,AK,Grayling,99590
"58.687446,-156.64007",1,-9,-156.64007,58.687446,AK,King Salmon,99613
"56.53595,-132.827948",1,-9,-132.827948,56.53595,AK,Port Alexander,99836
"61.391728,-149.99002",1,-9,-149.99002,61.391728,AK,Wasilla,99687
"60.102331,-154.55708",1,-9,-154.55708,60.102331,AK,Port Alsworth,99653
"65.152583,-149.39156",1,-9,-149.39156,65.152583,AK,Minto,99758
"62.298254,-149.87542",1,-9,-149.87542,62.298254,AK,Talkeetna,99676
"64.827164,-147.6265",1,-9,-147.6265,64.827164,AK,Fort Wainwright,99703
"60.484146,-149.78153",1,-9,-149.78153,60.484146,AK,Cooper Landing,99572
"64.778099,-141.19257",1,-9,-141.19257,64.778099,AK,Eagle,99738
"66.897192,-162.58544",1,-9,-162.58544,66.897192,AK,Kotzebue,99752
"70.477663,-157.41805",1,-9,-157.41805,70.477663,AK,Atqasuk,99791
"61.067777,-151.14169",1,-9,-151.14169,61.067777,AK,Tyonek,99682
"61.188276,-149.93438",1,-9,-149.93438,61.188276,AK,Anchorage,99517
"56.252156,-158.74638",1,-9,-158.74638,56.252156,AK,Chignik Lake,99548
"61.796774,-150.07792",1,-9,-150.07792,61.796774,AK,Willow,99688
"60.318451,-151.28948",1,-9,-151.28948,60.318451,AK,Kasilof,99610
"59.452339,-157.31368",1,-9,-157.31368,59.452339,AK,New Stuyahok,99636
"64.661627,-147.02121",1,-9,-147.02121,64.661627,AK,Eielson AFB,99702
"62.12042,-145.58592",1,-9,-145.58592,62.12042,AK,Glennallen,99588
"60.527618,-164.81976",1,-9,-164.81976,60.527618,AK,Nightmute,99690
"65.250432,-166.35474",1,-9,-166.35474,65.250432,AK,Teller,99778
"57.529161,-154.00286",1,-9,-154.00286,57.529161,AK,Larsen Bay,99624
"59.870295,-163.16752",1,-9,-163.16752,59.870295,AK,Kwigillingok,99622
"54.098693,-165.88176",1,-9,-165.88176,54.098693,AK,Akutan,99553
"55.742045,-132.25002",1,-9,-132.25002,55.742045,AK,Meyers Chuck,99903
"62.198048,-159.77341",1,-9,-159.77341,62.198048,AK,Holy Cross,99602
"57.508178,-157.39907",1,-9,-157.39907,57.508178,AK,Pilot Point,99649
"60.587598,-151.23355",1,-9,-151.23355,60.587598,AK,Kenai,99611
"58.83256,-158.55254",1,-9,-158.55254,58.83256,AK,Clarks Point,99569
"61.108864,-149.440311",1,-9,-149.440311,61.108864,AK,Anchorage,99519
"61.108864,-149.440311",1,-9,-149.440311,61.108864,AK,Anchorage,99524
"54.849999,-163.42011",1,-9,-163.42011,54.849999,AK,False Pass,99583
"61.144568,-149.878418",1,-9,-149.878418,61.144568,AK,Anchorage,99510
"61.224384,-149.77461",1,-9,-149.77461,61.224384,AK,Elmendorf AFB,99506
"61.832347,-145.2308",1,-9,-145.2308,61.832347,AK,Copper Center,99573
"59.971286,-154.85008",1,-9,-154.85008,59.971286,AK,Nondalton,99640
"58.268704,-155.797078",1,-9,-155.797078,58.268704,AK,Kodiak,99619
"60.532936,-165.10529",1,-9,-165.10529,60.532936,AK,Toksook Bay,99637
"64.854937,-147.87406",1,-9,-147.87406,64.854937,AK,Fairbanks,99709
"66.597998,-160.01772",1,-9,-160.01772,66.597998,AK,Selawik,99770
"59.665074,-151.4493",1,-9,-151.4493,59.665074,AK,Homer,99603
"57.19926,-153.30438",1,-9,-153.30438,57.19926,AK,Old Harbor,99643
"55.368644,-131.6762",1,-9,-131.6762,55.368644,AK,Ketchikan,99901
"59.00689,-161.81529",1,-9,-161.81529,59.00689,AK,Platinum,99651
"65.172029,-152.08258",1,-9,-152.08258,65.172029,AK,Tanana,99777
"62.729019,-164.29917",1,-9,-164.29917,62.729019,AK,Emmonak,99581
"59.279037,-135.6122",1,-9,-135.6122,59.279037,AK,Haines,99827
"64.826445,-147.38884",1,-9,-147.38884,64.826445,AK,Fairbanks,99711
"64.289856,-149.17778",1,-9,-149.17778,64.289856,AK,Clear,99704
"58.377074,-134.617383",1,-9,-134.617383,58.377074,AK,Juneau,99803
"62.980725,-141.82852",1,-9,-141.82852,62.980725,AK,Northway,99764
"66.359719,-147.39743",1,-9,-147.39743,66.359719,AK,Beaver,99724
"62.048263,-163.1937",1,-9,-163.1937,62.048263,AK,Saint Marys,99658
"59.781241,-154.10833",1,-9,-154.10833,59.781241,AK,Pedro Bay,99647
"63.477448,-162.03841",1,-9,-162.03841,63.477448,AK,Saint Michael,99659
"60.911865,-161.22577",1,-9,-161.22577,60.911865,AK,Akiak,99552
"60.973454,-149.4583",1,-9,-149.4583,60.973454,AK,Indian,99540
"55.063736,-162.3124",1,-9,-162.3124,55.063736,AK,King Cove,99612
"66.887401,-157.14287",1,-9,-157.14287,66.887401,AK,Shungnak,99773
"65.226375,-151.025085",1,-9,-151.025085,65.226375,AK,Flat,99584
"58.449413,-134.700348",1,-9,-134.700348,58.449413,AK,Auke Bay,99821
"64.324887,-158.73204",1,-9,-158.73204,64.324887,AK,Kaltag,99748
"60.489536,-151.02091",1,-9,-151.02091,60.489536,AK,Soldotna,99669
"63.776098,-171.70088",1,-9,-171.70088,63.776098,AK,Gambell,99742
"64.881745,-157.70439",1,-9,-157.70439,64.881745,AK,Koyukuk,99754
"62.090075,-163.72393",1,-9,-163.72393,62.090075,AK,Mountain Village,99632
"64.852055,-147.937747",1,-9,-147.937747,64.852055000000007,AK,Fairbanks,99706
"61.859821,-158.12888",1,-9,-158.12888,61.859821,AK,Crooked Creek,99575
"63.893902,-152.30201",1,-9,-152.30201,63.893902,AK,Lake Minchumina,99757
"62.495675,-164.97188",1,-9,-164.97188,62.495675,AK,Sheldon Point,99666
"58.276192,-134.39781",1,-9,-134.39781,58.276192,AK,Douglas,99824
"59.116273,-156.84802",1,-9,-156.84802,59.116273,AK,Levelock,99625
"57.959709,-136.22032",1,-9,-136.22032,57.959709,AK,Pelican,99832
"62.999213,-154.41957",1,-9,-154.41957,62.999213,AK,Nikolai,99691
"64.343258,-161.16785",1,-9,-161.16785,64.343258,AK,Shaktoolik,99771
"66.566652,-145.28231",1,-9,-145.28231,66.566652,AK,Fort Yukon,99740
"64.856055,-146.27598",1,-9,-146.27598,64.856055,AK,Fairbanks,99790
"56.009124,-132.82018",1,-9,-132.82018,56.009124,AK,Coffman Cove,99918
"65.979144,-161.12225",1,-9,-161.12225,65.979144,AK,Buckland,99727
"65.507883,-150.1636",1,-9,-150.1636,65.507883,AK,Rampart,99767
"63.978355,-145.4623",1,-9,-145.4623,63.978355,AK,Delta Junction,99737
"61.810587,-157.3437",1,-9,-157.3437,61.810587,AK,Red Devil,99656
"55.91076,-159.15591",1,-9,-159.15591,55.91076,AK,Perryville,99648
"61.555701,-144.14233",1,-9,-144.14233,61.555701,AK,Chitina,99566
"61.203953,-149.8144",1,-9,-149.8144,61.203953,AK,Anchorage,99508
"66.075713,-162.71822",1,-9,-162.71822,66.075713,AK,Deering,99736
"62.632905,-160.21336",1,-9,-160.21336,62.632905,AK,Anvik,99558
"67.733313,-164.54522",1,-9,-164.54522,67.733313,AK,Kivalina,99750
"62.655998,-159.53113",1,-9,-159.53113,62.655998,AK,Shageluk,99665
"64.010218,-149.10712",1,-9,-149.10712,64.010218,AK,Healy,99743
"61.128176,-146.2357",1,-9,-146.2357,61.128176,AK,Valdez,99686
"68.347052,-166.76291",1,-9,-166.76291,68.347052,AK,Point Hope,99766
"63.341767,-142.93704",1,-9,-142.93704,63.341767,AK,Tok,99780
"56.975011,-133.9323",1,-9,-133.9323,56.975011,AK,Kake,99830
"61.878073,-162.08481",1,-9,-162.08481,61.878073,AK,Marshall,99585
"62.945434,-163.76142",1,-9,-163.76142,62.945434,AK,Kotlik,99620
"61.108864,-149.440311",1,-9,-149.440311,61.108864,AK,Anchorage,99514
"62.415294,-150.37044",1,-9,-150.37044,62.415294,AK,Trapper Creek,99683
"56.784206,-132.97354",1,-9,-132.97354,56.784206,AK,Petersburg,99833
"67.083658,-157.86225",1,-9,-157.86225,67.083658,AK,Ambler,99786
"66.005296,-149.10303",1,-9,-149.10303,66.005296,AK,Stevens Village,99774
"61.518175,-160.37019",1,-9,-160.37019,61.518175,AK,Lower Kalskag,99626
"67.015569,-146.41736",1,-9,-146.41736,67.015569,AK,Venetie,99781
"59.798363,-151.73566",1,-9,-151.73566,59.798363,AK,Anchor Point,99556
"70.640902,-160.02481",1,-9,-160.02481,70.640902,AK,Wainwright,99782
"61.108864,-149.440311",1,-9,-149.440311,61.108864,AK,Anchorage,99509
"61.187188,-149.880393",1,-9,-149.880393,61.187188,AK,Anchorage,99599
"65.551022,-144.71982",1,-9,-144.71982,65.551022,AK,Central,99730
"66.83713,-161.03664",1,-9,-161.03664,66.83713,AK,Noorvik,99763
"61.108864,-149.440311",1,-9,-149.440311,61.108864,AK,Anchorage,99522
"58.434052,-135.73088",1,-9,-135.73088,58.434052,AK,Gustavus,99826
"61.535511,-160.30165",1,-9,-160.30165,61.535511,AK,Kalskag,99607
"59.269535,-158.62458",1,-9,-158.62458,59.269535,AK,Aleknagik,99555
"59.748806,-154.8124",1,-9,-154.8124,59.748806,AK,Iliamna,99606
"61.153693,-149.95932",1,-9,-149.95932,61.153693,AK,Anchorage,99502
"61.598203,-149.04109",1,-9,-149.04109,61.598203,AK,Palmer,99645
"64.932225,-161.15597",1,-9,-161.15597,64.932225,AK,Koyuk,99753
"60.873178,-162.5196",1,-9,-162.5196,60.873178,AK,Kasigluk,99609
"60.952049,-149.0838",1,-9,-149.0838,60.952049,AK,Girdwood,99587
"56.337957,-133.60689",1,-9,-133.60689,56.337957,AK,Point Baker,99927
"57.867089,-152.88568",1,-9,-152.88568,57.867089,AK,Port Lions,99550
"59.422698,-151.71513",1,-9,-151.71513,59.422698,AK,Seldovia,99663
"65.796306,-144.06388",1,-9,-144.06388,65.796306,AK,Circle,99733
"59.360233,-157.4838",1,-9,-157.4838,59.360233,AK,Ekwok,99580
"55.311735,-160.48813",1,-9,-160.48813,55.311735,AK,Sand Point,99661
"58.358599,-134.54749",1,-9,-134.54749,58.358599,AK,Juneau,99801
"60.499602,-149.40247",1,-9,-149.40247,60.499602,AK,Moose Pass,99631
"64.620513,-162.27718",1,-9,-162.27718,64.620513,AK,Elim,99739
"63.511893,-162.27463",1,-9,-162.27463,63.511893,AK,Stebbins,99671
"64.739082,-156.89456",1,-9,-156.89456,64.739082,AK,Galena,99741
"60.516935,-150.719924",1,-9,-150.719924,60.516935,AK,Funny River,99699
"59.937619,-164.04392",1,-9,-164.04392,59.937619,AK,Kipnuk,99614
"61.751348,-148.69632",1,-9,-148.69632000000001,61.751348,AK,Sutton,99674
"62.667589,-144.49059",1,-9,-144.49059,62.667589,AK,Gakona,99586
"57.064376,-135.3227",1,-9,-135.3227,57.064376,AK,Sitka,99835
"61.122943,-149.88852",1,-9,-149.88852,61.122943,AK,Anchorage,99515
"64.83507,-147.72045",1,-9,-147.72045,64.83507,AK,Fairbanks,99701
"58.068878,-136.27833",1,-9,-136.27833,58.068878,AK,Elfin Cove,99825
"64.777233,-147.3649",1,-9,-147.3649,64.777233,AK,North Pole,99705
"56.298297,-158.4044",1,-9,-158.4044,56.298297,AK,Chignik,99564
"64.860846,-147.82681",1,-9,-147.82681,64.860846,AK,Fairbanks,99775
"60.639257,-148.54211",1,-9,-148.54211,60.639257,AK,Whittier,99693
"61.586896,-149.094699",1,-9,-149.094699,61.586896,AK,Palmer,99646
"63.255516,-148.39873",1,-9,-148.39873,63.255516,AK,Cantwell,99729
"58.109608,-135.43154",1,-9,-135.43154,58.109608,AK,Hoonah,99829
"66.259417,-165.73202",1,-9,-165.73202,66.259417,AK,Shishmaref,99772
"59.754016,-161.90079",1,-9,-161.90079,59.754016,AK,Quinhagak,99655
"60.143735,-164.25283",1,-9,-164.25283,60.143735,AK,Chefornak,99561
"58.981087,-159.0558",1,-9,-159.0558,58.981087,AK,Manokotak,99628
"59.465159,-135.31355",1,-9,-135.31355,59.465159,AK,Skagway,99840
"64.730035,-158.11178",1,-9,-158.11178,64.730035,AK,Nulato,99765
"62.969642,-156.10264",1,-9,-156.10264,62.969642,AK,Takotna,99675
"66.917381,-151.50508",1,-9,-151.50508,66.917381,AK,Bettles Field,99726
"66.693255,-153.993988",1,-9,-153.993988,66.693255,AK,Prudhoe Bay,99734
"61.580187,-149.48821",1,-9,-149.48821,61.580187,AK,Wasilla,99654
"64.926041,-147.49573",1,-9,-147.49573,64.926041,AK,Fairbanks,99712
"58.405657,-134.58969",1,-9,-134.58969,58.405657,AK,Juneau,99802
"65.612116,-168.08928",1,-9,-168.08928,65.612116,AK,Wales,99783
"55.209339,-132.82545",1,-9,-132.82545,55.209339,AK,Hydaburg,99922
"64.560888,-149.07674",1,-9,-149.07674,64.560888,AK,Nenana,99760
"60.214239,-162.03799",1,-9,-162.03799,60.214239,AK,Eek,99578
"68.148216,-151.72854",1,-9,-151.72854,68.148216,AK,Anaktuvuk Pass,99721
"60.582127,-165.25645",1,-9,-165.25645,60.582127,AK,Tununak,99681
"64.684323,-163.44257",1,-9,-163.44257,64.684323,AK,White Mountain,99784
"61.068324,-149.800476",1,-9,-149.800476,61.068324,AK,Anchorage,99511
"64.349263,-149.19265",1,-9,-149.19265,64.349263,AK,Anderson,99744
"60.364246,-166.28601",1,-9,-166.28601,60.364246,AK,Mekoryuk,99630
"67.572031,-162.97508",1,-9,-162.97508,67.572031,AK,Noatak,99761
"61.629635,-149.79507",1,-9,-149.79507,61.629635,AK,Houston,99694
"56.946256,-158.62832",1,-9,-158.62832,56.946256,AK,Port Heiden,99549
"66.653222,-143.72717",1,-9,-143.72717,66.653222,AK,Chalkyitsik,99788
"62.94914,-155.57265",1,-9,-155.57265,62.94914,AK,McGrath,99627
"61.108864,-149.440311",1,-9,-149.440311,61.108864,AK,Anchorage,99520
"71.299525,-156.74891",1,-9,-156.74891,71.299525,AK,Barrow,99723
"60.695049,-161.9909",1,-9,-161.9909,60.695049,AK,Napakiak,99634
"38.017617,-122.6943",1,-8,-122.6943,38.017617,CA,Lagunitas,94938
"34.808718,-114.62664",1,-8,-114.62664,34.808718,CA,Needles,92363
"41.736424,-122.40008",1,-8,-122.40008,41.736424,CA,Montague,96064
"38.377411,-121.444429",1,-8,-121.444429,38.377411,CA,Sacramento,94285
"37.732797,-122.39348",1,-8,-122.39348,37.732797,CA,San Francisco,94124
"33.786594,-118.298662",1,-8,-118.298662,33.786594,CA,Burbank,91507
"33.70602,-117.1974",1,-8,-117.1974,33.70602,CA,Sun City,92586
"35.366197,-117.63618",1,-8,-117.63618,35.366197,CA,Johannesburg,93528
"37.369473,-121.82077",1,-8,-121.82077,37.369473,CA,San Jose,95127
"34.161795,-116.41246",1,-8,-116.41246,34.161795,CA,Yucca Valley,92284
"38.545656,-120.74287",1,-8,-120.74287,38.545656,CA,River Pines,95675
"35.305512,-119.38925",1,-8,-119.38925,35.305512,CA,Tupman,93276
"33.998751,-117.44695",1,-8,-117.44695,33.998751,CA,Riverside,92509
"33.786594,-118.298662",1,-8,-118.298662,33.786594,CA,Hawthorne,90251
"33.957957,-117.24833",1,-8,-117.24833,33.957957,CA,Moreno Valley,92557
"33.640302,-117.769442",1,-8,-117.769442,33.640302,CA,Anaheim,92899
"33.762117,-117.81828",1,-8,-117.81828,33.762117,CA,Santa Ana,92705
"33.786594,-118.298662",1,-8,-118.298662,33.786594,CA,Canoga Park,91309
"41.056097,-121.49021",1,-8,-121.49021,41.056097,CA,Fall River Mills,96028
"36.581329,-121.46597",1,-8,-121.46597,36.581329,CA,Chualar,93925
"37.186872,-120.650351",1,-8,-120.650351,37.186872,CA,Merced,95341
"34.061611,-118.23944",1,-8,-118.23944,34.061611,CA,Los Angeles,90012
"33.106862,-117.07077",1,-8,-117.07077,33.106862,CA,Escondido,92025
"37.38025,-120.72614",1,-8,-120.72614,37.38025,CA,Livingston,95334
"38.377411,-121.444429",1,-8,-121.444429,38.377411,CA,Sacramento,94246
"33.991181,-117.37074",1,-8,-117.37074,33.991181,CA,Riverside,92501
"37.381144,-122.334825",1,-8,-122.334825,37.381144,CA,South San Francisco,94099
"33.786594,-118.298662",1,-8,-118.298662,33.786594,CA,Van Nuys,91497
"38.587805,-121.37809",1,-8,-121.37809,38.587805,CA,Sacramento,95864
"38.170372,-122.25605",1,-8,-122.25605,38.170372,CA,American Canyon,94503
"33.016928,-116.846046",1,-8,-116.846046,33.016928,CA,Santee,92072
"37.420143,-120.66525",1,-8,-120.66525,37.420143,CA,Cressey,95312
"37.777208,-121.955399",1,-8,-121.955399,37.777208,CA,Concord,94522
"35.132673,-118.50781",1,-8,-118.50781,35.132673,CA,Tehachapi,93561
"35.381408,-119.01935",1,-8,-119.01935,35.381408,CA,Bakersfield,93301
"34.169663,-118.32364",1,-8,-118.32364,34.169663,CA,Burbank,91506
"33.640302,-117.769442",1,-8,-117.769442,33.640302,CA,Westminster,92685
"40.878317,-124.075673",1,-8,-124.075673,40.878317,CA,Arcata,95522
"37.865026,-122.2859",1,-8,-122.2859,37.865026,CA,Berkeley,94702
"37.703427,-122.128",1,-8,-122.128,37.703427,CA,San Leandro,94578
"33.786594,-118.298662",1,-8,-118.298662,33.786594,CA,Los Angeles,90078
"37.39324,-121.96066",1,-8,-121.96066,37.39324,CA,Santa Clara,95054
"38.068036,-122.740988",1,-8,-122.740988,38.068036,CA,Fairfax,94978
"37.784827,-122.727802",1,-8,-122.727802,37.784827,CA,San Francisco,94125
"33.016928,-116.846046",1,-8,-116.846046,33.016928,CA,El Cajon,92090
"38.377411,-121.444429",1,-8,-121.444429,38.377411,CA,Sacramento,94279
"37.777208,-121.955399",1,-8,-121.955399,37.777208,CA,Moraga,94570
"37.413659,-121.05649",1,-8,-121.05649,37.413659,CA,Crows Landing,95313
"37.346241,-121.9846",1,-8,-121.9846,37.346241,CA,Santa Clara,95051
"34.08166,-118.17568",1,-8,-118.17568,34.08166,CA,Los Angeles,90032
"33.786594,-118.298662",1,-8,-118.298662,33.786594,CA,Calabasas,91372
"33.845064,-118.395107",1,-8,-118.395107,33.845064,CA,Redondo Beach,90276
"37.400193,-120.61094",1,-8,-120.61094,37.400193,CA,Winton,95388
"37.60396,-120.937052",1,-8,-120.937052,37.60396,CA,Riverbank,95390
"33.752886,-116.055617",1,-8,-116.055617,33.752886,CA,Moreno Valley,92552
"37.784827,-122.727802",1,-8,-122.727802,37.784827,CA,San Francisco,94159
"37.374421,-122.213",1,-8,-122.213,37.374421,CA,Portola Valley,94028
"33.59869,-114.652517",1,-8,-114.652517,33.59869,CA,Blythe,92226
"38.146124,-120.45458",1,-8,-120.45458,38.146124,CA,Murphys,95247
"37.189396,-121.705327",1,-8,-121.705327,37.189396,CA,San Jose,95137
"33.933551,-118.06821",1,-8,-118.06821,33.933551,CA,Santa Fe Springs,90670
"33.923463,-117.89559",1,-8,-117.89559,33.923463,CA,Brea,92821
"38.21053,-119.31968",1,-8,-119.31968,38.21053,CA,Bridgeport,93517
"40.272963,-124.21494",1,-8,-124.21494,40.272963,CA,Petrolia,95558
"37.784827,-122.727802",1,-8,-122.727802,37.784827,CA,San Francisco,94138
"33.786594,-118.298662",1,-8,-118.298662,33.786594,CA,Pomona,91797
"36.734051,-118.958777",1,-8,-118.958777,36.734051,CA,Kings Canyon National Pk,93633
"38.132618,-121.32282",1,-8,-121.32282,38.132618,CA,Lodi,95242
"39.311858,-123.79166",1,-8,-123.79166,39.311858,CA,Mendocino,95460
"35.161923,-118.84655",1,-8,-118.84655,35.161923,CA,Arvin,93203
"37.5596,-120.9141",1,-8,-120.9141,37.5596,CA,Keyes,95328
"37.784827,-122.727802",1,-8,-122.727802,37.784827,CA,San Francisco,94160
"41.190742,-120.90294",1,-8,-120.90294,41.190742,CA,Adin,96006
"34.048411,-118.34015",1,-8,-118.34015,34.048411,CA,Los Angeles,90019
"40.413386,-123.53267",1,-8,-123.53267,40.413386,CA,Bridgeville,95526
"36.746375,-119.639658",1,-8,-119.639658,36.746375,CA,Fresno,93762
"33.784099,-118.38752",1,-8,-118.38752,33.784099,CA,Palos Verdes Peninsula,90274
"33.673468,-118.00243",1,-8,-118.00243,33.673468,CA,Huntington Beach,92648
"33.786594,-118.298662",1,-8,-118.298662,33.786594,CA,Van Nuys,91408
"36.825582,-119.76358",1,-8,-119.76358,36.825582,CA,Fresno,93710
"37.299474,-121.75446",1,-8,-121.75446,37.299474,CA,San Jose,95135
"36.746375,-119.639658",1,-8,-119.639658,36.746375,CA,Fresno,93755
"39.727052,-123.79238",1,-8,-123.79238,39.727052,CA,Westport,95488
"37.777208,-121.955399",1,-8,-121.955399,37.777208,CA,Concord,94524
"34.201254,-118.32993",1,-8,-118.32993,34.201254,CA,Burbank,91504
"37.777208,-121.955399",1,-8,-121.955399,37.777208,CA,Richmond,94808
"37.592184,-122.04577",1,-8,-122.04577,37.592184,CA,Union City,94587
"34.819232,-119.000391",1,-8,-119.000391,34.819232,CA,Lake of the Woods,93325
"33.869114,-117.92985",1,-8,-117.92985,33.869114,CA,Fullerton,92832
"37.189396,-121.705327",1,-8,-121.705327,37.189396,CA,San Jose,95196
"33.769018,-118.19225",1,-8,-118.19225,33.769018,CA,Long Beach,90802
"33.942289,-118.12901",1,-8,-118.12901,33.942289,CA,Downey,90241
"37.232047,-119.52006",1,-8,-119.52006,37.232047,CA,North Fork,93643
"37.889849,-121.253872",1,-8,-121.253872,37.889849,CA,Stockton,95269
"37.189396,-121.705327",1,-8,-121.705327,37.189396,CA,San Jose,95170
"39.535446,-122.57667",1,-8,-122.57667000000001,39.535446,CA,Elk Creek,95939
"38.277661,-121.9192",1,-8,-121.9192,38.277661,CA,Travis AFB,94535
"36.431565,-118.86296",1,-8,-118.86296,36.431565,CA,Three Rivers,93271
"33.786594,-118.298662",1,-8,-118.298662,33.786594,CA,Los Angeles,90009
"34.110009,-117.71973",1,-8,-117.71973,34.110009,CA,Claremont,91711
"33.786594,-118.298662",1,-8,-118.298662,33.786594,CA,Glendale,91226
"37.680181,-121.921498",1,-8,-121.921498,37.680181,CA,Hayward,94557
"41.688163,-120.23924",1,-8,-120.23924,41.688163,CA,Lake City,96115
"33.798669,-116.51887",1,-8,-116.51887,33.798669,CA,Palm Springs,92264
"33.786594,-118.298662",1,-8,-118.298662,33.786594,CA,Pasadena,91187
"33.142706,-117.03049",1,-8,-117.03049,33.142706,CA,Escondido,92027
"34.262834,-119.848555",1,-8,-119.848555,34.262834,CA,Goleta,93199
"33.786594,-118.298662",1,-8,-118.298662,33.786594,CA,Torrance,90507
"34.839964,-115.967051",1,-8,-115.967051,34.839964,CA,Redlands,92375
"33.786594,-118.298662",1,-8,-118.298662,33.786594,CA,Whittier,90612
"40.562648,-122.2255",1,-8,-122.2255,40.562648,CA,Palo Cedro,96073
"37.348541,-121.88627",1,-8,-121.88627,37.348541,CA,San Jose,95112
"38.004172,-121.3237",1,-8,-121.3237,38.004172,CA,Stockton,95207
"39.861821,-122.48014",1,-8,-122.48014,39.861821,CA,Flournoy,96029
"38.934409,-119.976707",1,-8,-119.976707,38.934409,CA,South Lake Tahoe,96157
"33.786594,-118.298662",1,-8,-118.298662,33.786594,CA,Glendale,91210
"32.733507,-117.216451",1,-8,-117.216451,32.733507,CA,San Diego,92133
"34.061931,-117.31995",1,-8,-117.31995,34.061931,CA,Colton,92324
"37.626067,-120.99955",1,-8,-120.99955,37.626067,CA,Modesto,95351
"34.045161,-118.1865",1,-8,-118.1865,34.045161,CA,Los Angeles,90063
"34.063209,-118.43643",1,-8,-118.43643,34.063209,CA,Los Angeles,90024
"39.413477,-121.71162",1,-8,-121.71162,39.413477,CA,Biggs,95917
"39.441356,-121.31354",1,-8,-121.31354,39.441356,CA,Rackerby,95972
"33.786594,-118.298662",1,-8,-118.298662,33.786594,CA,Pasadena,91191
"32.761801,-117.01273",1,-8,-117.01273,32.761801,CA,La Mesa,91941
"41.161505,-123.72444",1,-8,-123.72444,41.161505,CA,Hoopa,95546
"41.268746,-120.42843",1,-8,-120.42843,41.268746,CA,Likely,96116
"37.189396,-121.705327",1,-8,-121.705327,37.189396,CA,San Jose,95194
"33.640302,-117.769442",1,-8,-117.769442,33.640302,CA,Atwood,92811
"37.189396,-121.705327",1,-8,-121.705327,37.189396,CA,San Jose,95172
"38.377411,-121.444429",1,-8,-121.444429,38.377411,CA,Sacramento,94258
"37.189396,-121.705327",1,-8,-121.705327,37.189396,CA,Coyote,95013
"40.504853,-121.83501",1,-8,-121.83501,40.504853,CA,Shingletown,96088
"38.996389,-123.66468",1,-8,-123.66468,38.996389,CA,Manchester,95459
"34.244448,-116.82962",1,-8,-116.82962,34.244448,CA,Sugarloaf,92386
"33.016928,-116.846046",1,-8,-116.846046,33.016928,CA,Poway,92074
"40.472993,-122.63707",1,-8,-122.63707,40.472993,CA,Igo,96047
"34.164255,-118.54472",1,-8,-118.54472,34.164255,CA,Tarzana,91356
"33.692876,-117.25038",1,-8,-117.25038,33.692876,CA,Sun City,92587
"33.640302,-117.769442",1,-8,-117.769442,33.640302,CA,Santa Ana,92702
"39.254875,-122.04572",1,-8,-122.04572,39.254875,CA,Colusa,95932
"33.640302,-117.769442",1,-8,-117.769442,33.640302,CA,Anaheim,92825
"33.016928,-116.846046",1,-8,-116.846046,33.016928,CA,San Diego,92169
"41.414707,-122.96832",1,-8,-122.96832,41.414707,CA,Etna,96027
"33.786594,-118.298662",1,-8,-118.298662,33.786594,CA,Woodland Hills,91371
"33.957012,-118.44167",1,-8,-118.44167,33.957012,CA,Playa Del Rey,90293
"38.817508,-121.17225",1,-8,-121.17225,38.817508,CA,Loomis,95650
"36.35433,-121.132928",1,-8,-121.132928,36.35433,CA,Salinas,93902
"38.480494,-122.74976",1,-8,-122.74976,38.480494,CA,Santa Rosa,95403
"33.016928,-116.846046",1,-8,-116.846046,33.016928,CA,Alpine,91903
"37.381144,-122.334825",1,-8,-122.334825,37.381144,CA,Millbrae,94031
"38.377411,-121.444429",1,-8,-121.444429,38.377411,CA,Represa,95671
"38.192911,-120.95775",1,-8,-120.95775,38.192911,CA,Wallace,95254
"34.839964,-115.967051",1,-8,-115.967051,34.839964,CA,Patton,92369
"33.986212,-118.37099",1,-8,-118.37099,33.986212,CA,Los Angeles,90056
"39.167276,-120.964275",1,-8,-120.964275,39.167276,CA,Chicago Park,95712
"33.803565,-117.99596",1,-8,-117.99596,33.803565,CA,Stanton,90680
"33.640302,-117.769442",1,-8,-117.769442,33.640302,CA,Irvine,92709
"33.786594,-118.298662",1,-8,-118.298662,33.786594,CA,Pacoima,91333
"37.397823,-122.16605",1,-8,-122.16605,37.397823,CA,Palo Alto,94304
"34.44005,-119.75496",1,-8,-119.75496,34.44005,CA,Santa Barbara,93105
"33.870466,-118.28813",1,-8,-118.28813,33.870466,CA,Gardena,90248
"33.016928,-116.846046",1,-8,-116.846046,33.016928,CA,Oceanside,92049
"32.616539,-116.71187",1,-8,-116.71187,32.616539,CA,Dulzura,91917
"37.903396,-122.65043",1,-8,-122.65043,37.903396,CA,Stinson Beach,94970
"33.847265,-118.11337",1,-8,-118.11337,33.847265,CA,Lakewood,90713
"40.036998,-121.831299",1,-8,-121.831299,40.036998,CA,Spring Garden,95771
"33.640302,-117.769442",1,-8,-117.769442,33.640302,CA,Buena Park,90624
"36.358928,-119.24027",1,-8,-119.24027,36.358928,CA,Visalia,93292
"32.662563,-116.95413",1,-8,-116.95413,32.662563,CA,Chula Vista,91914
"34.07041,-117.69938",1,-8,-117.69938,34.07041,CA,Montclair,91763
"34.839964,-115.967051",1,-8,-115.967051,34.839964,CA,San Bernardino,92415
"35.459347,-120.88947",1,-8,-120.88947,35.459347,CA,Cayucos,93430
"41.734832,-123.07218",1,-8,-123.07218,41.734832,CA,Scott Bar,96085
"33.786594,-118.298662",1,-8,-118.298662,33.786594,CA,Sherman Oaks,91413
"33.771548,-117.47884",1,-8,-117.47884,33.771548,CA,Corona,92883
"33.786594,-118.298662",1,-8,-118.298662,33.786594,CA,Inglewood,90313
"34.03457,-118.42843",1,-8,-118.42843,34.03457,CA,Los Angeles,90064
"33.786594,-118.298662",1,-8,-118.298662,33.786594,CA,Castaic,91310
"36.565252,-119.24273",1,-8,-119.24273,36.565252,CA,Orosi,93647
"33.786594,-118.298662",1,-8,-118.298662,33.786594,CA,San Fernando,91341
"37.189396,-121.705327",1,-8,-121.705327,37.189396,CA,Palo Alto,94309
"35.636185,-120.27185",1,-8,-120.27185,35.636185,CA,Shandon,93461
"38.844909,-120.042996",1,-8,-120.042996,38.844909,CA,South Lake Tahoe,96155
"35.347065,-120.455345",1,-8,-120.455345,35.347065,CA,Arroyo Grande,93421
"34.175205,-118.382212",1,-8,-118.382212,34.175205,CA,Los Angeles,91671
"38.377411,-121.444429",1,-8,-121.444429,38.377411,CA,Sacramento,95860
"38.377411,-121.444429",1,-8,-121.444429,38.377411,CA,Citrus Heights,95611
"37.856683,-122.02488",1,-8,-122.02488,37.856683,CA,Alamo,94507
"38.744062,-121.99929",1,-8,-121.99929,38.744062,CA,Esparto,95627
"38.377411,-121.444429",1,-8,-121.444429,38.377411,CA,Sacramento,94252
"34.045006,-118.44527",1,-8,-118.44527,34.045006,CA,Los Angeles,90025
"38.727451,-121.45433",1,-8,-121.45433,38.727451,CA,Elverta,95626
"37.889849,-121.253872",1,-8,-121.253872,37.889849,CA,Stockton,95297
"34.839964,-115.967051",1,-8,-115.967051,34.839964,CA,Mountain Pass,92366
"38.068036,-122.740988",1,-8,-122.740988,38.068036,CA,Mill Valley,94942
"37.52489,-122.50991",1,-8,-122.50991,37.52489,CA,Moss Beach,94038
"38.823996,-120.05956",1,-8,-120.05956,38.823996,CA,Echo Lake,95721
"34.268736,-119.2249",1,-8,-119.2249,34.268736,CA,Ventura,93003
"37.816876,-121.28541",1,-8,-121.28541,37.816876,CA,Lathrop,95330
"33.786594,-118.298662",1,-8,-118.298662,33.786594,CA,San Pedro,90733
"35.818054,-120.63645",1,-8,-120.63645,35.818054,CA,San Miguel,93451
"33.016928,-116.846046",1,-8,-116.846046,33.016928,CA,San Diego,92166
"37.784827,-122.727802",1,-8,-122.727802,37.784827,CA,San Francisco,94165
"33.960263,-118.3252",1,-8,-118.3252,33.960263,CA,Inglewood,90305
"38.66152,-121.34361",1,-8,-121.34361,38.66152,CA,Sacramento,95841
"37.34964,-121.8544",1,-8,-121.8544,37.34964,CA,San Jose,95116
"39.491076,-121.49468",1,-8,-121.49468,39.491076,CA,Oroville,95966
"33.866555,-117.59167",1,-8,-117.59167,33.866555,CA,Corona,92882
"33.752886,-116.055617",1,-8,-116.055617,33.752886,CA,Riverside,92521
"36.746375,-119.639658",1,-8,-119.639658,36.746375,CA,Fresno,93744
"33.660374,-116.408249",1,-8,-116.408249,33.660374,CA,Palm Desert,92261
"35.614134,-118.27824",1,-8,-118.27824,35.614134,CA,Weldon,93283
"33.725167,-118.00509",1,-8,-118.00509,33.725167,CA,Huntington Beach,92647
"37.972622,-121.665205",1,-8,-121.665205,37.972622,CA,Knightsen,94548
"35.00224,-115.23936",1,-8,-115.23936,35.00224,CA,Essex,92332
"34.189605,-118.22857",1,-8,-118.22857,34.189605,CA,Glendale,91208
"38.377411,-121.444429",1,-8,-121.444429,38.377411,CA,Sacramento,95853
"33.926315,-117.40937",1,-8,-117.40937,33.926315,CA,Riverside,92504
"37.784827,-122.727802",1,-8,-122.727802,37.784827,CA,San Francisco,94120
"38.616891,-121.49623",1,-8,-121.49623,38.616891,CA,Sacramento,95833
"34.211494,-118.23104",1,-8,-118.23104,34.211494,CA,Montrose,91020
"40.814595,-124.08052",1,-8,-124.08052,40.814595,CA,Eureka,95502
"36.709717,-121.63997",1,-8,-121.63997,36.709717,CA,Salinas,93906
"34.377782,-118.51489",1,-8,-118.51489,34.377782,CA,Newhall,91321
"34.032383,-119.1343",1,-8,-119.1343,34.032383,CA,Ventura,93002
"33.786594,-118.298662",1,-8,-118.298662,33.786594,CA,Alhambra,91896
"33.786594,-118.298662",1,-8,-118.298662,33.786594,CA,Pasadena,91184
"35.04535,-118.16141",1,-8,-118.16141,35.04535,CA,Mojave,93501
"35.313222,-120.83468",1,-8,-120.83468,35.313222,CA,Los Osos,93402
"37.10548,-122.1047",1,-8,-122.1047,37.10548,CA,Brookdale,95007
"33.752886,-116.055617",1,-8,-116.055617,33.752886,CA,Hemet,92546
"34.201638,-116.906215",1,-8,-116.906215,34.201638,CA,Barstow,92312
"37.680181,-121.921498",1,-8,-121.921498,37.680181,CA,Fremont,94537
"33.891265,-118.2975",1,-8,-118.2975,33.891265,CA,Gardena,90247
"33.752886,-116.055617",1,-8,-116.055617,33.752886,CA,Perris,92572
"37.75735,-121.95213",1,-8,-121.95213,37.75735,CA,San Ramon,94583
"37.838744,-121.96672",1,-8,-121.96672,37.838744,CA,Diablo,94528
"33.198032,-117.234701",1,-8,-117.234701,33.198032,CA,Carlsbad,92002
"38.939725,-122.78548",1,-8,-122.78548,38.939725,CA,Kelseyville,95451
"33.955913,-118.35868",1,-8,-118.35868,33.955913,CA,Inglewood,90301
"36.40263,-120.12855",1,-8,-120.12855,36.40263,CA,Five Points,93624
"33.785166,-117.93406",1,-8,-117.93406,33.785166,CA,Garden Grove,92840
"33.640302,-117.769442",1,-8,-117.769442,33.640302,CA,Buena Park,90622
"37.898058,-122.54134",1,-8,-122.54134,37.898058,CA,Mill Valley,94941
"34.056709,-118.41183",1,-8,-118.41183,34.056709,CA,Los Angeles,90067
"38.611854,-121.44553",1,-8,-121.44553,38.611854,CA,Sacramento,95815
"33.786594,-118.298662",1,-8,-118.298662,33.786594,CA,Inglewood,90398
"38.678663,-121.96907",1,-8,-121.96907,38.678663,CA,Madison,95653
"38.359772,-120.75324",1,-8,-120.75324,38.359772,CA,Jackson,95642
"39.663242,-120.43806",1,-8,-120.43806,39.663242,CA,Calpine,96124
"33.786594,-118.298662",1,-8,-118.298662,33.786594,CA,Long Beach,90842
"37.786129,-122.43736",1,-8,-122.43736,37.786129,CA,San Francisco,94115
"41.317771,-122.31207",1,-8,-122.31207,41.317771,CA,Mount Shasta,96067
"37.777208,-121.955399",1,-8,-121.955399,37.777208,CA,El Sobrante,94820
"33.786594,-118.298662",1,-8,-118.298662,33.786594,CA,Pasadena,91131
"35.119678,-120.55116",1,-8,-120.55116,35.119678,CA,Arroyo Grande,93420
"38.377411,-121.444429",1,-8,-121.444429,38.377411,CA,Sacramento,94205
"33.786594,-118.298662",1,-8,-118.298662,33.786594,CA,Pasadena,91126
"33.639994,-117.60351",1,-8,-117.60351,33.639994,CA,Rancho Santa Margarita,92688
"34.200104,-118.54099",1,-8,-118.54099,34.200104,CA,Reseda,91335
"37.534736,-122.32588",1,-8,-122.32588,37.534736,CA,San Mateo,94497
"37.60396,-120.937052",1,-8,-120.937052,37.60396,CA,Modesto,95353
"34.07851,-118.26596",1,-8,-118.26596,34.07851,CA,Los Angeles,90026
"34.114558,-118.19233",1,-8,-118.19233,34.114558,CA,Los Angeles,90042
"33.934164,-118.33255",1,-8,-118.33255,33.934164,CA,Inglewood,90303
"34.141659,-117.29722",1,-8,-117.29722,34.141659,CA,San Bernardino,92405
"35.987276,-121.04788",1,-8,-121.04788,35.987276,CA,Lockwood,93932
"35.364749,-119.70242",1,-8,-119.70242,35.364749,CA,McKittrick,93251
"37.203092,-122.33718",1,-8,-122.33718,37.203092,CA,Pescadero,94060
"37.777208,-121.955399",1,-8,-121.955399,37.777208,CA,Moraga,94575
"34.205626,-117.10499",1,-8,-117.10499,34.205626,CA,Running Springs,92382
"37.981623,-122.56884",1,-8,-122.56884,37.981623,CA,San Anselmo,94960
"33.786594,-118.298662",1,-8,-118.298662,33.786594,CA,Wilmington,90748
"35.294405,-118.905173",1,-8,-118.905173,35.294405,CA,Boron,93596
"34.067409,-118.47528",1,-8,-118.47528,34.067409,CA,Los Angeles,90049
"35.39068,-119.18583",1,-8,-119.18583,35.39068,CA,Bakersfield,93312
"38.377411,-121.444429",1,-8,-121.444429,38.377411,CA,Sacramento,94229
"36.311439,-119.70823",1,-8,-119.70823,36.311439,CA,Armona,93202
"39.585648,-121.259009",1,-8,-121.259009,39.585648,CA,Feather Falls,95940
"36.472713,-118.902899",1,-8,-118.902899,36.472713,CA,Kaweah,93237
"34.35876,-117.62752",1,-8,-117.62752,34.35876,CA,Wrightwood,92397
"33.66985,-117.765939",1,-8,-117.765939,33.66985,CA,Irvine,92619
"33.941363,-117.99477",1,-8,-117.99477,33.941363,CA,Whittier,90603
"40.732501,-122.11264",1,-8,-122.11264,40.732501,CA,Bella Vista,96008
"33.840965,-118.07775",1,-8,-118.07775,33.840965,CA,Lakewood,90715
"36.746375,-119.639658",1,-8,-119.639658,36.746375,CA,Fresno,93775
"36.741199,-119.7553",1,-8,-119.7553,36.741199,CA,Fresno,93702
"33.786594,-118.298662",1,-8,-118.298662,33.786594,CA,Palmdale,93599
"37.189396,-121.705327",1,-8,-121.705327,37.189396,CA,Los Altos,94023
"41.892473,-124.145734",1,-8,-124.145734,41.892473,CA,Fort Dick,95538
"33.786594,-118.298662",1,-8,-118.298662,33.786594,CA,Los Angeles,90099
"38.695252,-121.3081",1,-8,-121.3081,38.695251999999996,CA,Citrus Heights,95621
"33.967562,-118.03384",1,-8,-118.03384,33.967562,CA,Whittier,90602
"33.890313,-117.32122",1,-8,-117.32122,33.890313,CA,Riverside,92508
"37.970726,-122.524012",1,-8,-122.524012,37.970726,CA,San Rafael,94991
"36.746375,-119.639658",1,-8,-119.639658,36.746375,CA,Fresno,93771
"33.945413,-118.03362",1,-8,-118.03362,33.945413,CA,Whittier,90605
"33.016928,-116.846046",1,-8,-116.846046,33.016928,CA,San Diego,92147
"38.377411,-121.444429",1,-8,-121.444429,38.377411,CA,Sacramento,94280
"39.241961,-120.02809",1,-8,-120.02809,39.241961,CA,Kings Beach,96143
"39.139543,-122.20563",1,-8,-122.20563,39.139543,CA,Williams,95987
"38.79829,-120.88578",1,-8,-120.88578,38.79829,CA,Coloma,95613
"39.381883,-121.21763",1,-8,-121.21763,39.381883,CA,Dobbins,95935
"36.624606,-121.64655",1,-8,-121.64655,36.624606,CA,Spreckels,93962
"40.283378,-120.12859",1,-8,-120.12859,40.283378,CA,Wendel,96136
"37.381144,-122.334825",1,-8,-122.334825,37.381144,CA,Redwood City,94064
"34.691946,-117.97756",1,-8,-117.97756,34.691946,CA,Lancaster,93535
"35.774967,-119.23371",1,-8,-119.23371,35.774967,CA,Delano,93215
"39.277658,-120.7067",1,-8,-120.7067,39.277658,CA,Emigrant Gap,95715
"33.786594,-118.298662",1,-8,-118.298662,33.786594,CA,Studio City,91614
"38.955142,-123.08125",1,-8,-123.08125,38.955142,CA,Hopland,95449
"38.075897,-120.46544",1,-8,-120.46544,38.075897,CA,Vallecito,95251
"34.497245,-118.18951",1,-8,-118.18951,34.497245,CA,Acton,93510
"41.963883,-121.89165",1,-8,-121.89165,41.963883,CA,Dorris,96023
"34.153628,-118.43222",1,-8,-118.43222,34.153628,CA,Sherman Oaks,91423
"35.294405,-118.905173",1,-8,-118.905173,35.294405,CA,Ridgecrest,93556
"33.948315,-118.24845",1,-8,-118.24845,33.948315,CA,Los Angeles,90002
"36.596251,-118.73425",1,-8,-118.73425,36.596251,CA,Sequoia National Park,93262
"38.180029,-122.88357",1,-8,-122.88357,38.180029,CA,Marshall,94940
"37.189396,-121.705327",1,-8,-121.705327,37.189396,CA,San Jose,95193
"33.786594,-118.298662",1,-8,-118.298662,33.786594,CA,North Hollywood,91611
"34.367474,-119.07317",1,-8,-119.07317,34.367474,CA,Santa Paula,93060
"37.189396,-121.705327",1,-8,-121.705327,37.189396,CA,Los Gatos,95031
"32.664307,-116.46513",1,-8,-116.46513,32.664307,CA,Campo,91906
"34.31039,-116.45012",1,-8,-116.45012,34.31039,CA,Landers,92285
"33.786594,-118.298662",1,-8,-118.298662,33.786594,CA,Mount Wilson,91023
"40.757091,-124.1513",1,-8,-124.1513,40.757091,CA,Eureka,95503
"37.69768,-122.02503",1,-8,-122.02503,37.69768,CA,Castro Valley,94552
"35.508282,-121.03551",1,-8,-121.03551,35.508282,CA,Harmony,93435
"32.804972,-117.16871",1,-8,-117.16871,32.804972,CA,San Diego,92111
"34.264635,-118.45961",1,-8,-118.45961,34.264635,CA,Mission Hills,91345
"33.680408,-117.82592",1,-8,-117.82592,33.680408,CA,Irvine,92614
"33.786594,-118.298662",1,-8,-118.298662,33.786594,CA,Duarte,91009
"38.867147,-122.224813",1,-8,-122.224813,38.867147,CA,Rumsey,95679
"34.07871,-118.2161",1,-8,-118.2161,34.07871,CA,Los Angeles,90031
"33.784051,-117.29812",1,-8,-117.29812,33.784051,CA,Perris,92570
"33.786594,-118.298662",1,-8,-118.298662,33.786594,CA,Pasadena,91123
"39.825781,-123.23026",1,-8,-123.23026,39.825781,CA,Covelo,95428
"38.687718,-121.349",1,-8,-121.349,38.687718,CA,Sacramento,95842
"37.189396,-121.705327",1,-8,-121.705327,37.189396,CA,San Jose,95192
"33.640302,-117.769442",1,-8,-117.769442,33.640302,CA,La Habra,90633
"36.780156,-118.91524",1,-8,-118.91524,36.780156,CA,Hume,93628
"37.866825,-122.253582",1,-8,-122.253582,37.866825,CA,Berkeley,94720
"35.294405,-118.905173",1,-8,-118.905173,35.294405,CA,Bakersfield,93385
"38.60766,-120.5937",1,-8,-120.5937,38.60766,CA,Somerset,95684
"40.929301,-121.55711",1,-8,-121.55711,40.929301,CA,Cassel,96016
"37.765218,-119.07769",1,-8,-119.07769,37.765218,CA,June Lake,93529
"38.377411,-121.444429",1,-8,-121.444429,38.377411,CA,Sacramento,95873
"34.839964,-115.967051",1,-8,-115.967051,34.839964,CA,Upland,91785
"38.377411,-121.444429",1,-8,-121.444429,38.377411,CA,Sacramento,94211
"37.381144,-122.334825",1,-8,-122.334825,37.381144,CA,San Mateo,94409
"33.640302,-117.769442",1,-8,-117.769442,33.640302,CA,Westminster,92684
"33.752886,-116.055617",1,-8,-116.055617,33.752886,CA,Riverside,92513
"33.610717,-117.8325",1,-8,-117.8325,33.610717,CA,Newport Coast,92657
"34.165706,-118.39986",1,-8,-118.39986,34.165706,CA,Valley Village,91607
"38.377411,-121.444429",1,-8,-121.444429,38.377411,CA,Sacramento,94277
"33.801783,-118.168691",1,-8,-118.168691,33.801783,CA,Long Beach,90755
"38.007639,-122.63914",1,-8,-122.63914,38.007639,CA,Woodacre,94973
"33.708618,-117.95629",1,-8,-117.95629,33.708618,CA,Fountain Valley,92708
"36.746375,-119.639658",1,-8,-119.639658,36.746375,CA,Fresno,93714
"40.89197,-123.56149",1,-8,-123.56149,40.89197,CA,Salyer,95563
"33.016928,-116.846046",1,-8,-116.846046,33.016928,CA,San Diego,92184
"40.169038,-120.37815",1,-8,-120.37815,40.169038,CA,Milford,96121
"37.951672,-122.07317",1,-8,-122.07317,37.951672,CA,Pleasant Hill,94523
"34.085809,-117.88694",1,-8,-117.88694,34.085809,CA,Covina,91723
"33.786594,-118.298662",1,-8,-118.298662,33.786594,CA,Compton,90224
"37.305714,-121.81145",1,-8,-121.81145,37.305714,CA,San Jose,95121
"33.765916,-117.88139",1,-8,-117.88139,33.765916,CA,Santa Ana,92706
"38.464487,-123.037996",1,-8,-123.037996,38.464487,CA,Villa Grande,95486
"38.463282,-120.550021",1,-8,-120.550021,38.463282,CA,Martell,95654
"34.75465,-120.27032",1,-8,-120.27032,34.75465,CA,Los Alamos,93440
"33.923243,-117.24211",1,-8,-117.24211,33.923243,CA,Moreno Valley,92553
"37.714179,-121.92567",1,-8,-121.92567,37.714179,CA,Dublin,94568
"37.895695,-122.11785",1,-8,-122.11785,37.895695,CA,Lafayette,94549
"33.568617,-117.25264",1,-8,-117.25264,33.568617,CA,Murrieta,92562
"37.777208,-121.955399",1,-8,-121.955399,37.777208,CA,Richmond,94850
"34.064062,-117.39432",1,-8,-117.39432,34.064062,CA,Bloomington,92316
"32.701452,-117.002054",1,-8,-117.002054,32.701452,CA,La Presa,91927
"40.196116,-123.77315",1,-8,-123.77315,40.196116,CA,Phillipsville,95559
"38.154118,-121.306",1,-8,-121.306,38.154118,CA,Woodbridge,95258
"34.639682,-120.4471",1,-8,-120.4471,34.639682,CA,Lompoc,93436
"32.620782,-116.60671",1,-8,-116.60671,32.620782,CA,Potrero,91963
"34.166906,-118.34366",1,-8,-118.34366,34.166906,CA,Burbank,91505
"36.61365,-119.52873",1,-8,-119.52873,36.61365,CA,Parlier,93648
"38.068036,-122.740988",1,-8,-122.740988,38.068036,CA,Sausalito,94966
"36.357151,-119.425371",1,-8,-119.425371,36.357151,CA,Goshen,93227
"37.801878,-122.41018",1,-8,-122.41018,37.801878,CA,San Francisco,94133
"33.786594,-118.298662",1,-8,-118.298662,33.786594,CA,Santa Monica,90411
"34.88923,-118.33629",1,-8,-118.33629,34.88923,CA,Rosamond,93560
"37.973204,-119.12029",1,-8,-119.12029,37.973204,CA,Lee Vining,93541
"33.850515,-117.79113",1,-8,-117.79113,33.850515,CA,Anaheim,92807
"35.294405,-118.905173",1,-8,-118.905173,35.294405,CA,Bakersfield,93382
"37.463911,-122.23396",1,-8,-122.23396,37.463911,CA,Redwood City,94061
"36.641742,-120.28909",1,-8,-120.28909,36.641742,CA,Tranquillity,93668
"37.784827,-122.727802",1,-8,-122.727802,37.784827,CA,San Francisco,94177
"37.189396,-121.705327",1,-8,-121.705327,37.189396,CA,San Jose,95171
"33.786594,-118.298662",1,-8,-118.298662,33.786594,CA,Torrance,90506
"34.224089,-118.37563",1,-8,-118.37563,34.224089,CA,Sun Valley,91352
"33.685479,-117.6669",1,-8,-117.6669,33.685479,CA,Foothill Ranch,92610
"33.72975,-118.0863",1,-8,-118.0863,33.72975,CA,Surfside,90743
"32.556264,-117.05057",1,-8,-117.05057,32.556264,CA,San Ysidro,92173
"39.904478,-121.52805",1,-8,-121.52805,39.904478,CA,Stirling City,95978
"32.98975,-115.50475",1,-8,-115.50475,32.98975,CA,Brawley,92227
"34.14348,-118.85608",1,-8,-118.85608,34.14348,CA,Westlake Village,91361
"33.786594,-118.298662",1,-8,-118.298662,33.786594,CA,Pico Rivera,90665
"37.353741,-122.08717",1,-8,-122.08717,37.353741,CA,Los Altos,94024
"32.638072,-116.95195",1,-8,-116.95195,32.638072,CA,Chula Vista,91915
"36.746375,-119.639658",1,-8,-119.639658,36.746375,CA,Fresno,93778
"37.029613,-120.64014",1,-8,-120.64014,37.029613,CA,Dos Palos,93620
"35.784367,-118.43769",1,-8,-118.43769,35.784367,CA,Kernville,93238
"33.761117,-118.12986",1,-8,-118.12986,33.761117,CA,Long Beach,90803
"33.786594,-118.298662",1,-8,-118.298662,33.786594,CA,Venice,90294
"37.727739,-122.204573",1,-8,-122.204573,37.727739,CA,Oakland,94614
"38.682803,-121.2231",1,-8,-121.2231,38.682803,CA,Orangevale,95662
"33.261748,-117.01027",1,-8,-117.01027,33.261748,CA,Valley Center,92082
"39.888074,-121.59048",1,-8,-121.59048,39.888074,CA,Magalia,95954
"33.016928,-116.846046",1,-8,-116.846046,33.016928,CA,La Jolla,92039
"40.446122,-120.35776",1,-8,-120.35776,40.446122,CA,Litchfield,96117
"35.848556,-116.22627",1,-8,-116.22627,35.848556,CA,Tecopa,92389
"32.624424,-116.17025",1,-8,-116.17025,32.624424,CA,Jacumba,91934
"40.289788,-121.23263",1,-8,-121.23263,40.289788,CA,Chester,96020
"38.449265,-123.05495",1,-8,-123.05495,38.449265,CA,Duncans Mills,95430
"36.534599,-119.83592",1,-8,-119.83592,36.534599,CA,Caruthers,93609
"33.818165,-117.97304",1,-8,-117.97304,33.818165,CA,Anaheim,92804
"33.976373,-118.45458",1,-8,-118.45458,33.976373,CA,Marina Del Rey,90292
"32.642486,-116.98973",1,-8,-116.98973,32.642486,CA,Chula Vista,91913
"38.859227,-121.17565",1,-8,-121.17565,38.859227,CA,Penryn,95663
"35.344209,-119.02225",1,-8,-119.02225,35.344209,CA,Bakersfield,93304
"36.201983,-119.08589",1,-8,-119.08589,36.201983,CA,Lindsay,93247
"37.189396,-121.705327",1,-8,-121.705327,37.189396,CA,New Almaden,95042
"34.231754,-119.05258",1,-8,-119.05258,34.231754,CA,Camarillo,93010
"33.640302,-117.769442",1,-8,-117.769442,33.640302,CA,Los Alamitos,90721
"38.935245,-119.967631",1,-8,-119.967631,38.935245,CA,South Lake Tahoe,96156
"37.127525,-120.50574",1,-8,-120.50574,37.127525,CA,El Nido,95317
"34.01491,-118.4922",1,-8,-118.4922,34.01491,CA,Santa Monica,90401
"36.300819,-121.2904",1,-8,-121.2904,36.300819,CA,Greenfield,93927
"37.742895,-121.12546",1,-8,-121.12546,37.742895,CA,Ripon,95366
"39.173321,-123.55081",1,-8,-123.55081,39.173321,CA,Navarro,95463
"39.425854,-121.35852",1,-8,-121.35852,39.425854,CA,Bangor,95914
"38.692808,-120.818771",1,-8,-120.818771,38.692808,CA,Diamond Springs,95517
"36.619065,-121.92102",1,-8,-121.92102,36.619065,CA,Pacific Grove,93950
"34.088911,-117.45213",1,-8,-117.45213,34.088911,CA,Fontana,92335
"36.658599,-119.74097",1,-8,-119.74097,36.658599,CA,Fresno,93725
"33.786594,-118.298662",1,-8,-118.298662,33.786594,CA,Long Beach,90853
"35.347065,-120.455345",1,-8,-120.455345,35.347065,CA,Los Osos,93412
"38.068036,-122.740988",1,-8,-122.740988,38.068036,CA,Larkspur,94977
"37.839426,-122.12426",1,-8,-122.12426,37.839426,CA,Moraga,94556
"33.016928,-116.846046",1,-8,-116.846046,33.016928,CA,San Diego,92138
"32.682727,-117.17441",1,-8,-117.17441,32.682727,CA,Coronado,92118
"39.365356,-123.80469",1,-8,-123.80469,39.365356,CA,Caspar,95420
"34.87455,-120.42806",1,-8,-120.42806,34.87455,CA,Santa Maria,93455
"34.178305,-118.45858",1,-8,-118.45858,34.178305,CA,Van Nuys,91411
"33.786594,-118.298662",1,-8,-118.298662,33.786594,CA,Lancaster,93539
"37.451688,-122.18385",1,-8,-122.18385,37.451688,CA,Menlo Park,94025
"33.016928,-116.846046",1,-8,-116.846046,33.016928,CA,Chula Vista,91909
"33.016928,-116.846046",1,-8,-116.846046,33.016928,CA,San Diego,92159
"34.032383,-119.1343",1,-8,-119.1343,34.032383,CA,Oxnard,93034
"33.786594,-118.298662",1,-8,-118.298662,33.786594,CA,Marina Del Rey,90295
"38.186102,-120.36328",1,-8,-120.36328,38.186102,CA,Hathaway Pines,95233
"37.583838,-118.23615",1,-8,-118.23615,37.583838,CA,Benton,93512
"38.269582,-122.03701",1,-8,-122.03701,38.269582,CA,Fairfield,94533
"37.843726,-122.24369",1,-8,-122.24369,37.843726,CA,Oakland,94618
"41.949739,-124.15098",1,-8,-124.15098,41.949739,CA,Smith River,95567
"33.786594,-118.298662",1,-8,-118.298662,33.786594,CA,Reseda,91337
"38.688069,-121.44874",1,-8,-121.44874,38.688069,CA,Rio Linda,95673
"33.786594,-118.298662",1,-8,-118.298662,33.786594,CA,Sunland,91041
"38.071769,-122.15517",1,-8,-122.15517,38.071769,CA,Benicia,94510
"33.786594,-118.298662",1,-8,-118.298662,33.786594,CA,Van Nuys,91388
"38.377411,-121.444429",1,-8,-121.444429,38.377411,CA,Sacramento,95867
"37.269343,-121.84939",1,-8,-121.84939,37.269343,CA,San Jose,95136
"38.931025,-121.94518",1,-8,-121.94518,38.931025,CA,Dunnigan,95937
"40.187554,-121.1152",1,-8,-121.1152,40.187554,CA,Canyondam,95923
"35.889586,-119.49352",1,-8,-119.49352,35.889586,CA,Alpaugh,93201
"34.956385,-119.74696",1,-8,-119.74696,34.956385,CA,New Cuyama,93254
"35.964022,-120.87339",1,-8,-120.87339,35.964022,CA,San Ardo,93450
"39.051698,-122.92071",1,-8,-122.92071,39.051698,CA,Lakeport,95453
"37.807938,-120.440467",1,-8,-120.440467,37.807938,CA,Chinese Camp,95309
"36.133401,-121.63798",1,-8,-121.63798,36.133401,CA,Big Sur,93920
"33.240926,-117.29851",1,-8,-117.29851,33.240926,CA,Oceanside,92057
"33.634821,-117.87453",1,-8,-117.87453,33.634821,CA,Newport Beach,92660
"33.696543,-117.3247",1,-8,-117.3247,33.696543,CA,Lake Elsinore,92532
"33.016928,-116.846046",1,-8,-116.846046,33.016928,CA,San Diego,92177
"34.164806,-118.0509",1,-8,-118.0509,34.164806,CA,Sierra Madre,91024
"33.016928,-116.846046",1,-8,-116.846046,33.016928,CA,Bonita,91908
"40.446063,-120.664132",1,-8,-120.664132,40.446063,CA,Mcarthur,96053
"33.016928,-116.846046",1,-8,-116.846046,33.016928,CA,San Diego,92172
"40.608728,-122.51427",1,-8,-122.51427,40.608728,CA,Shasta,96087
"33.640302,-117.769442",1,-8,-117.769442,33.640302,CA,Orange,92863
"41.285897,-121.16094",1,-8,-121.16094,41.285897,CA,Lookout,96054
"38.558073,-121.28737",1,-8,-121.28737,38.558073,CA,Mather,95655
"35.842485,-119.01483",1,-8,-119.01483,35.842484999999996,CA,Ducor,93218
"36.447533,-121.68611",1,-8,-121.68611,36.447533,CA,Carmel Valley,93924
"33.786594,-118.298662",1,-8,-118.298662,33.786594,CA,Los Angeles,90079
"37.644481,-120.98043",1,-8,-120.98043,37.644481,CA,Modesto,95354
"37.189396,-121.705327",1,-8,-121.705327,37.189396,CA,San Jose,95108
"34.032383,-119.1343",1,-8,-119.1343,34.032383,CA,Simi Valley,93062
"33.640302,-117.769442",1,-8,-117.769442,33.640302,CA,Yorba Linda,92885
"33.786594,-118.298662",1,-8,-118.298662,33.786594,CA,Mission Hills,91346
"36.746375,-119.639658",1,-8,-119.639658,36.746375,CA,Fresno,93780
"37.680181,-121.921498",1,-8,-121.921498,37.680181,CA,Oakland,94627
"39.51642,-121.26853",1,-8,-121.26853,39.51642,CA,Forbestown,95941
"32.608799,-117.0607",1,-8,-117.0607,32.608799,CA,Chula Vista,91911
"34.026959,-118.47432",1,-8,-118.47432,34.026959,CA,Santa Monica,90404
"33.88898,-118.40535",1,-8,-118.40535,33.888980000000004,CA,Manhattan Beach,90266
"32.562106,-117.07166",1,-8,-117.07166,32.562106,CA,San Diego,92134
"33.792124,-117.993561",1,-8,-117.993561,33.792124,CA,Garden Grove,92680
"38.06317,-122.54111",1,-8,-122.54111,38.06317,CA,Novato,94949
"38.594205,-121.40726",1,-8,-121.40726,38.594205,CA,Sacramento,95825
"35.734418,-117.89313",1,-8,-117.89313,35.734418,CA,Inyokern,93527
"41.441194,-122.64688",1,-8,-122.64688,41.441194,CA,Gazelle,96034
"33.786594,-118.298662",1,-8,-118.298662,33.786594,CA,Norwalk,90652
"37.784827,-122.727802",1,-8,-122.727802,37.784827,CA,San Francisco,94151
"33.786594,-118.298662",1,-8,-118.298662,33.786594,CA,Norwalk,90659
"32.914346,-117.14116",1,-8,-117.14116,32.914346,CA,San Diego,92126
"40.907437,-123.88348",1,-8,-123.88348,40.907437,CA,Blue Lake,95525
"38.749713,-120.53386",1,-8,-120.53386,38.749713,CA,Pollock Pines,95726
"38.377411,-121.444429",1,-8,-121.444429,38.377411,CA,Sacramento,94287
"33.988813,-118.18642",1,-8,-118.18642,33.988813,CA,Maywood,90270
"40.867469,-124.07519",1,-8,-124.07519,40.867469,CA,Arcata,95521
"33.786594,-118.298662",1,-8,-118.298662,33.786594,CA,Pasadena,91185
"37.428227,-120.77519",1,-8,-120.77519,37.428227,CA,Delhi,95315
"41.081726,-124.13112",1,-8,-124.13112,41.081726,CA,Trinidad,95570
"38.347174,-122.69537",1,-8,-122.69537,38.347174,CA,Rohnert Park,94928
"40.459978,-124.06059",1,-8,-124.06059,40.459978,CA,Scotia,95565
"38.038906,-121.24213",1,-8,-121.24213,38.038906,CA,Stockton,95212
"37.436451,-121.89438",1,-8,-121.89438,37.436451,CA,Milpitas,95035
"34.088771,-117.85817",1,-8,-117.85817,34.088771,CA,Covina,91724
"40.705474,-122.021",1,-8,-122.021,40.705474,CA,Oak Run,96069
"33.828815,-118.38322",1,-8,-118.38322,33.828815,CA,Redondo Beach,90277
"33.786594,-118.298662",1,-8,-118.298662,33.786594,CA,Norwalk,90651
"36.774951,-119.13779",1,-8,-119.13779,36.774951,CA,Dunlap,93621
"37.797806,-121.00179",1,-8,-121.00179,37.797806,CA,Escalon,95320
"33.762944,-116.42249",1,-8,-116.42249,33.762944,CA,Rancho Mirage,92270
"38.356552,-120.58318",1,-8,-120.58318,38.356552,CA,Glencoe,95232
"38.634753,-120.53353",1,-8,-120.53353,38.634753,CA,Grizzly Flats,95636
"35.664386,-121.21965",1,-8,-121.21965,35.664386,CA,San Simeon,93452
"33.786594,-118.298662",1,-8,-118.298662,33.786594,CA,Los Angeles,90088
"38.068036,-122.740988",1,-8,-122.740988,38.068036,CA,Corte Madera,94976
"37.734964,-122.4597",1,-8,-122.4597,37.734964,CA,San Francisco,94127
"39.331444,-122.47943",1,-8,-122.47943,39.331444,CA,Stonyford,95979
"38.689067,-120.82071",1,-8,-120.82071,38.689067,CA,Diamond Springs,95619
"37.936151,-122.5355",1,-8,-122.5355,37.936151,CA,Larkspur,94939
"33.783467,-118.15182",1,-8,-118.15182,33.783467,CA,Long Beach,90804
"37.984271,-122.01437",1,-8,-122.01437,37.984271,CA,Concord,94519
"33.771167,-118.14482",1,-8,-118.14482,33.771167,CA,Long Beach,90814
"33.786594,-118.298662",1,-8,-118.298662,33.786594,CA,Arcadia,91066
"38.580255,-121.49125",1,-8,-121.49125,38.580255,CA,Sacramento,95814
"37.784827,-122.727802",1,-8,-122.727802,37.784827,CA,San Francisco,94142
"32.823102,-116.73864",1,-8,-116.73864,32.823102,CA,Alpine,91901
"33.016928,-116.846046",1,-8,-116.846046,33.016928,CA,Carlsbad,92018
"34.07036,-118.34926",1,-8,-118.34926,34.07036,CA,Los Angeles,90036
"37.959439,-120.82329",1,-8,-120.82329,37.959439,CA,Farmington,95230
"33.786594,-118.298662",1,-8,-118.298662,33.786594,CA,Los Angeles,90102
"38.025086,-121.29722",1,-8,-121.29722,38.025086,CA,Stockton,95210
"37.216184,-121.743632",1,-8,-121.743632,37.216184,CA,San Jose,95153
"40.63446,-121.91202",1,-8,-121.91202,40.63446,CA,Whitmore,96096
"33.786594,-118.298662",1,-8,-118.298662,33.786594,CA,Pomona,91799
"37.456807,-121.913632",1,-8,-121.913632,37.456807,CA,Milpitas,95036
"37.758434,-122.43512",1,-8,-122.43512,37.758434,CA,San Francisco,94114
"36.691036,-119.83321",1,-8,-119.83321,36.691036,CA,Fresno,93706
"32.856447,-117.21143",1,-8,-117.21143000000001,32.856447,CA,San Diego,92122
"36.566779,-119.62201",1,-8,-119.62201,36.566779,CA,Selma,93662
"34.152513,-118.46396",1,-8,-118.46396,34.152513,CA,Sherman Oaks,91403
"34.232003,-118.24753",1,-8,-118.24753,34.232003,CA,La Crescenta,91214
"33.786594,-118.298662",1,-8,-118.298662,33.786594,CA,Chatsworth,91313
"37.46994,-120.67607",1,-8,-120.67607,37.46994,CA,Ballico,95303
"34.199704,-118.44724",1,-8,-118.44724,34.199704,CA,Van Nuys,91405
"38.830508,-122.19944",1,-8,-122.19944,38.830508,CA,Guinda,95637
"33.752886,-116.055617",1,-8,-116.055617,33.752886,CA,Temecula,92589
"33.752886,-116.055617",1,-8,-116.055617,33.752886,CA,San Jacinto,92581
"32.823865,-117.19966",1,-8,-117.19966,32.823865,CA,San Diego,92117
"38.031271,-122.26213",1,-8,-122.26213,38.031271,CA,Rodeo,94572
"34.254199,-117.17563",1,-8,-117.17563,34.254199,CA,Cedar Glen,92321
"35.89151,-119.263225",1,-8,-119.263225,35.89151,CA,Earlimart,93217
"34.262243,-116.861506",1,-8,-116.861506,34.262243,CA,San Bernardino,92427
"34.073759,-118.37376",1,-8,-118.37376,34.073759,CA,Los Angeles,90048
"36.981035,-119.38254",1,-8,-119.38254,36.981035,CA,Tollhouse,93667
"34.201491,-118.49376",1,-8,-118.49376,34.201491,CA,Van Nuys,91406
"33.786594,-118.298662",1,-8,-118.298662,33.786594,CA,Van Nuys,91482
"38.05282,-122.2234",1,-8,-122.2234,38.05282,CA,Crockett,94525
"34.851405,-118.87993",1,-8,-118.87993,34.851405,CA,Lebec,93243
"36.746375,-119.639658",1,-8,-119.639658,36.746375,CA,Fresno,93791
"33.786594,-118.298662",1,-8,-118.298662,33.786594,CA,Inglewood,90311
"37.924242,-122.516",1,-8,-122.516,37.924242,CA,Corte Madera,94925
"37.189396,-121.705327",1,-8,-121.705327,37.189396,CA,Mountain View,94042
"36.986148,-121.497349",1,-8,-121.497349,36.986148,CA,Gilroy,95021
"36.722616,-120.10081",1,-8,-120.10081,36.722616,CA,Kerman,93630
"34.21392,-117.127166",1,-8,-117.127166,34.21392,CA,San Bernardino,92402
"40.024337,-122.12378",1,-8,-122.12378,40.024337,CA,Tehama,96090
"38.681254,-121.74189",1,-8,-121.74189,38.681254,CA,Woodland,95776
"36.746375,-119.639658",1,-8,-119.639658,36.746375,CA,Fresno,93776
"33.870714,-117.879342",1,-8,-117.879342,33.870714,CA,Placentia,92670
"33.911404,-116.76834",1,-8,-116.76834,33.911404,CA,Cabazon,92230
"39.558586,-121.58923",1,-8,-121.58923,39.558586,CA,Oroville,95965
"41.263103,-122.10297",1,-8,-122.10297,41.263103,CA,Mccloud,96057
"36.72845,-119.53571",1,-8,-119.53571,36.72845,CA,Sanger,93657
"33.786594,-118.298662",1,-8,-118.298662,33.786594,CA,Artesia,90702
"33.759283,-118.08239",1,-8,-118.08239,33.759282999999996,CA,Seal Beach,90740
"41.455226,-123.47671",1,-8,-123.47671,41.455226,CA,Somes Bar,95568
"33.786594,-118.298662",1,-8,-118.298662,33.786594,CA,Verdugo City,91046
"34.839964,-115.967051",1,-8,-115.967051,34.839964,CA,San Bernardino,92424
"34.839964,-115.967051",1,-8,-115.967051,34.839964,CA,San Bernardino,92414
"36.746375,-119.639658",1,-8,-119.639658,36.746375,CA,Fresno,93792
"39.090421,-122.78972",1,-8,-122.78972,39.090421,CA,Lucerne,95458
"36.746375,-119.639658",1,-8,-119.639658,36.746375,CA,Fresno,93764
"37.819423,-122.36966",1,-8,-122.36966,37.819423,CA,San Francisco,94130
"33.891084,-117.2726",1,-8,-117.2726,33.891084,CA,March Air Force Base,92518
"33.016928,-116.846046",1,-8,-116.846046,33.016928,CA,Oceanside,92052
"36.304696,-119.11383",1,-8,-119.11383,36.304696,CA,Exeter,93221
"33.786594,-118.298662",1,-8,-118.298662,33.786594,CA,Pomona,91769
"34.068059,-117.93835",1,-8,-117.93835,34.068059,CA,West Covina,91790
"33.972814,-118.17385",1,-8,-118.17385,33.972814,CA,Bell,90201
"34.456957,-119.25307",1,-8,-119.25307,34.456957,CA,Ojai,93023
"38.717819,-123.32757",1,-8,-123.32757,38.717819,CA,Annapolis,95412
"33.601673,-117.716885",1,-8,-117.716885,33.601673,CA,Laguna Hills,92654
"33.835665,-117.90807",1,-8,-117.90807,33.835665,CA,Anaheim,92805
"38.697238,-121.80944",1,-8,-121.80944,38.697238,CA,Woodland,95695
"36.665879,-121.65497",1,-8,-121.65497,36.665879,CA,Salinas,93901
"33.786594,-118.298662",1,-8,-118.298662,33.786594,CA,Rosemead,91772
"38.022322,-122.561689",1,-8,-122.561689,38.022322,CA,Ross,94957
"38.377411,-121.444429",1,-8,-121.444429,38.377411,CA,Sacramento,94230
"39.761199,-123.33547",1,-8,-123.33547,39.761199,CA,Dos Rios,95429
"41.924974,-120.28989",1,-8,-120.28989,41.924974,CA,New Pine Creek,97635
"38.664824,-121.52061",1,-8,-121.52061,38.664824,CA,Sacramento,95835
"37.894625,-122.27917",1,-8,-122.27917,37.894625,CA,Berkeley,94707
"38.018456,-121.05675",1,-8,-121.05675,38.018456,CA,Linden,95236
"33.659639,-117.73948",1,-8,-117.73948,33.659639,CA,Irvine,92618
"33.786594,-118.298662",1,-8,-118.298662,33.786594,CA,La Puente,91749
"33.833416,-118.29198",1,-8,-118.29198,33.833416,CA,Torrance,90502
"33.308217,-116.8471",1,-8,-116.8471,33.308217,CA,Palomar Mountain,92060
"35.487491,-119.00896",1,-8,-119.00896,35.487491,CA,Bakersfield,93308
"40.876184,-121.88975",1,-8,-121.88975,40.876184,CA,Montgomery Creek,96065
"33.889035,-117.22046",1,-8,-117.22046,33.889035,CA,Moreno Valley,92551
"33.786594,-118.298662",1,-8,-118.298662,33.786594,CA,Los Angeles,90089
"38.393314,-122.83666",1,-8,-122.83666,38.393314,CA,Sebastopol,95472
"33.972914,-118.24878",1,-8,-118.24878,33.972914,CA,Los Angeles,90001
"38.509737,-123.00084",1,-8,-123.00084,38.509737,CA,Guerneville,95446
"37.734379,-122.23952",1,-8,-122.23952,37.734379,CA,Alameda,94502
"38.851198,-121.73354",1,-8,-121.73354,38.851198,CA,Knights Landing,95645
"37.077273,-119.42982",1,-8,-119.42982,37.077273,CA,Auberry,93602
"39.598792,-120.63432",1,-8,-120.63432,39.598792,CA,Sierra City,96125
"36.9761,-121.95316",1,-8,-121.95316,36.9761,CA,Capitola,95010
"37.225787,-121.617894",1,-8,-121.617894,37.225787,CA,Morgan Hill,95038
"36.387879,-119.21908",1,-8,-119.21908,36.387879,CA,Ivanhoe,93235
"38.495857,-122.90636",1,-8,-122.90636,38.495857,CA,Forestville,95436
"34.061911,-118.27687",1,-8,-118.27687,34.061911,CA,Los Angeles,90057
"38.313864,-122.513093",1,-8,-122.513093,38.313864,CA,El Verano,95433
"33.786594,-118.298662",1,-8,-118.298662,33.786594,CA,Glendale,91221
"32.8201,-116.91234",1,-8,-116.91234,32.8201,CA,El Cajon,92021
"37.770937,-122.44276",1,-8,-122.44276,37.770937,CA,San Francisco,94117
"33.647028,-117.91506",1,-8,-117.91506,33.647028,CA,Costa Mesa,92627
"37.100417,-120.27864",1,-8,-120.27864,37.100417,CA,Chowchilla,93610
"33.600172,-117.86823",1,-8,-117.86823,33.600172,CA,Corona Del Mar,92625
"34.06521,-117.77932",1,-8,-117.77932,34.06521,CA,Pomona,91768
"37.809427,-122.27172",1,-8,-122.27172,37.809427,CA,Oakland,94612
"33.628333,-114.61905",1,-8,-114.61905,33.628333,CA,Blythe,92225
"37.784827,-122.727802",1,-8,-122.727802,37.784827,CA,San Francisco,94162
"33.786594,-118.298662",1,-8,-118.298662,33.786594,CA,Walnut,91795
"38.710228,-122.95704",1,-8,-122.95704,38.710228,CA,Geyserville,95441
"37.862526,-122.27582",1,-8,-122.27582,37.862526,CA,Berkeley,94703
"37.793177,-122.24352",1,-8,-122.24352,37.793177,CA,Oakland,94606
"37.284459,-119.53472",1,-8,-119.53472,37.284459,CA,Wishon,93669
"37.784827,-122.727802",1,-8,-122.727802,37.784827,CA,San Francisco,94157
"33.786594,-118.298662",1,-8,-118.298662,33.786594,CA,Pasadena,91110
"34.900809,-120.34876",1,-8,-120.34876,34.900809,CA,Santa Maria,93454
"38.782731,-121.89811",1,-8,-121.89811,38.782731,CA,Zamora,95698
"39.760968,-122.218",1,-8,-122.218,39.760968,CA,Orland,95963
"33.786594,-118.298662",1,-8,-118.298662,33.786594,CA,Downey,90239
"37.799727,-122.21211",1,-8,-122.21211,37.799727,CA,Oakland,94602
"33.786594,-118.298662",1,-8,-118.298662,33.786594,CA,Los Angeles,90093
"32.792631,-115.69162",1,-8,-115.69162,32.792631,CA,Seeley,92273
"37.427439,-121.97521",1,-8,-121.97521,37.427439,CA,Alviso,95002
"34.420163,-119.7065",1,-8,-119.7065,34.420163,CA,Santa Barbara,93101
"34.839964,-115.967051",1,-8,-115.967051,34.839964,CA,Skyforest,92385
"37.562218,-121.99433",1,-8,-121.99433,37.562218,CA,Fremont,94536
"38.005122,-122.25784",1,-8,-122.25784,38.005122,CA,Hercules,94547
"40.45453,-122.31101",1,-8,-122.31101,40.45453,CA,Anderson,96007
"39.496465,-121.74712",1,-8,-121.74712,39.496465,CA,Richvale,95974
"38.117269,-122.568442",1,-8,-122.568442,38.117269,CA,Novato,94998
"33.016928,-116.846046",1,-8,-116.846046,33.016928,CA,San Diego,92153
"37.381144,-122.334825",1,-8,-122.334825,37.381144,CA,Burlingame,94011
"40.793739,-124.16102",1,-8,-124.16102,40.793739,CA,Eureka,95501
"39.469943,-121.07321",1,-8,-121.07321,39.469943,CA,Camptonville,95922
"33.921313,-118.40843",1,-8,-118.40843,33.921313,CA,El Segundo,90245
"37.48858,-120.85196",1,-8,-120.85196,37.48858,CA,Turlock,95380
"38.476196,-121.34715",1,-8,-121.34715,38.476196,CA,Sacramento,95829
"34.090975,-118.3813",1,-8,-118.3813,34.090975,CA,West Hollywood,90069
"37.381144,-122.334825",1,-8,-122.334825,37.381144,CA,San Mateo,94405
"37.789228,-122.3957",1,-8,-122.3957,37.789228,CA,San Francisco,94105
"37.326341,-121.9178",1,-8,-121.9178,37.326341,CA,San Jose,95126
"33.786594,-118.298662",1,-8,-118.298662,33.786594,CA,San Marino,91118
"36.209815,-120.0847",1,-8,-120.0847,36.209815,CA,Huron,93234
"34.626931,-120.0661",1,-8,-120.0661,34.626931,CA,Santa Ynez,93460
"38.377411,-121.444429",1,-8,-121.444429,38.377411,CA,Sacramento,94204
"34.103341,-117.81814",1,-8,-117.81814,34.103341,CA,San Dimas,91773
"34.166933,-119.16113",1,-8,-119.16113,34.166933,CA,Oxnard,93033
"34.815266,-119.00404",1,-8,-119.00404,34.815266,CA,Frazier Park,93225
"38.145601,-120.85733",1,-8,-120.85733,38.145601,CA,Valley Springs,95252
"37.791728,-122.4019",1,-8,-122.4019,37.791728,CA,San Francisco,94104
"37.427039,-122.16496",1,-8,-122.16496,37.427039,CA,Stanford,94305
"32.638654,-117.06686",1,-8,-117.06686,32.638654,CA,Chula Vista,91910
"38.463088,-122.989975",1,-8,-122.989975,38.463088,CA,Boyes Hot Springs,95416
"37.778729,-122.49265",1,-8,-122.49265,37.778729,CA,San Francisco,94121
"33.924642,-118.20186",1,-8,-118.20186,33.924642,CA,Lynwood,90262
"34.052709,-118.2559",1,-8,-118.2559,34.052709,CA,Los Angeles,90071
"40.800556,-120.36374",1,-8,-120.36374,40.800556,CA,Ravendale,96123
"36.841665,-119.349639",1,-8,-119.349639,36.841665,CA,Piedra,93649
"33.786594,-118.298662",1,-8,-118.298662,33.786594,CA,Van Nuys,91409
"36.961248,-120.65439",1,-8,-120.65439,36.961248,CA,South Dos Palos,93665
"38.641158,-120.97109",1,-8,-120.97109,38.641158,CA,Shingle Springs,95682
"33.640302,-117.769442",1,-8,-117.769442,33.640302,CA,Fullerton,92834
"37.792678,-122.40793",1,-8,-122.40793,37.792678,CA,San Francisco,94108
"33.921765,-117.48812",1,-8,-117.48812,33.921765,CA,Riverside,92505
"37.766529,-122.39577",1,-8,-122.39577,37.766529,CA,San Francisco,94107
"36.626033,-117.218616",1,-8,-117.218616,36.626033,CA,Little Lake,93542
"38.34896,-121.908324",1,-8,-121.908324,38.34896,CA,Vacaville,95696
"33.640302,-117.769442",1,-8,-117.769442,33.640302,CA,Fullerton,92836
"38.232898,-121.568427",1,-8,-121.568427,38.232898,CA,Ryde,95680
"32.719601,-117.16246",1,-8,-117.16246,32.719601,CA,San Diego,92101
"32.853471,-115.58942",1,-8,-115.58942,32.853471,CA,Imperial,92251
"39.624259,-121.79152",1,-8,-121.79152,39.624259,CA,Durham,95938
"33.387467,-114.71352",1,-8,-114.71352,33.387467,CA,Palo Verde,92266
"33.786594,-118.298662",1,-8,-118.298662,33.786594,CA,Whittier,90610
"32.663803,-117.02456",1,-8,-117.02456,32.663803,CA,Bonita,91902
"41.51823,-124.03075",1,-8,-124.03075,41.51823,CA,Klamath,95548
"37.282192,-118.38717",1,-8,-118.38717,37.282192,CA,Bishop,93514
"33.675893,-117.34946",1,-8,-117.34946,33.675893,CA,Lake Elsinore,92530
"34.909491,-116.84058",1,-8,-116.84058,34.909491,CA,Yermo,92398
"33.934513,-117.95159",1,-8,-117.95159,33.934513,CA,La Habra,90631
"36.21106,-121.05986",1,-8,-121.05986,36.21106,CA,King City,93930
"33.786594,-118.298662",1,-8,-118.298662,33.786594,CA,City Of Industry,91715
"34.396646,-118.90082",1,-8,-118.90082,34.396646,CA,Fillmore,93015
"33.893265,-118.204",1,-8,-118.204,33.893265,CA,Compton,90221
"37.213624,-121.85671",1,-8,-121.85671,37.213624,CA,San Jose,95120
"38.492811,-121.10036",1,-8,-121.10036,38.492811,CA,Sloughhouse,95683
"34.175926,-116.29137",1,-8,-116.29137,34.175926,CA,Joshua Tree,92252
"38.377411,-121.444429",1,-8,-121.444429,38.377411,CA,Sacramento,94268
"38.377411,-121.444429",1,-8,-121.444429,38.377411,CA,Sacramento,95851
"38.805745,-120.13213",1,-8,-120.13213,38.805745,CA,Twin Bridges,95735
"34.018361,-117.85438",1,-8,-117.85438,34.018361,CA,Walnut,91789
"39.43695,-123.76087",1,-8,-123.76087,39.43695,CA,Fort Bragg,95437
"36.746375,-119.639658",1,-8,-119.639658,36.746375,CA,Fresno,93793
"38.377411,-121.444429",1,-8,-121.444429,38.377411,CA,Sacramento,94244
"37.381144,-122.334825",1,-8,-122.334825,37.381144,CA,Redwood City,94059
"33.811566,-117.82919",1,-8,-117.82919,33.811566,CA,Orange,92867
"40.639108,-123.47525",1,-8,-123.47525,40.639108,CA,Hyampom,96046
"33.016928,-116.846046",1,-8,-116.846046,33.016928,CA,National City,91951
"34.311203,-119.30164",1,-8,-119.30164,34.311203,CA,Ventura,93001
"33.73542,-116.97401",1,-8,-116.97401,33.73542,CA,Hemet,92543
"34.443746,-119.94215",1,-8,-119.94215,34.443746,CA,Goleta,93117
"34.548138,-115.65796",1,-8,-115.65796,34.548138,CA,Amboy,92304
"40.939342,-122.42246",1,-8,-122.42246,40.939342,CA,Lakehead,96051
"37.840248,-120.04541",1,-8,-120.04541,37.840248,CA,Groveland,95321
"38.835146,-122.72234",1,-8,-122.72234,38.835146,CA,Cobb,95426
"34.107559,-118.22663",1,-8,-118.22663,34.107559,CA,Los Angeles,90065
"37.381144,-122.334825",1,-8,-122.334825,37.381144,CA,South San Francisco,94083
"40.06686,-120.77442",1,-8,-120.77442,40.06686,CA,Taylorsville,95983
"33.016928,-116.846046",1,-8,-116.846046,33.016928,CA,San Diego,92186
"37.995238,-120.3437",1,-8,-120.3437,37.995238,CA,Sonora,95370
"37.38949,-122.07846",1,-8,-122.07846,37.38949,CA,Mountain View,94041
"32.785,-117.0186",1,-8,-117.0186,32.785,CA,La Mesa,91942
"39.320012,-120.160271",1,-8,-120.160271,39.320012,CA,Truckee,96163
"36.746375,-119.639658",1,-8,-119.639658,36.746375,CA,Fresno,93773
"34.176238,-118.61992",1,-8,-118.61992,34.176238,CA,Woodland Hills,91367
"38.927149,-119.999032",1,-8,-119.999032,38.927149,CA,South Lake Tahoe,96152
"41.004651,-122.71541",1,-8,-122.71541,41.004651,CA,Trinity Center,96091
"33.719118,-117.87143",1,-8,-117.87143,33.719118,CA,Santa Ana,92707
"32.889139,-117.100486",1,-8,-117.100486,32.889139,CA,San Diego,92145
"38.245851,-122.90644",1,-8,-122.90644,38.245851,CA,Tomales,94971
"40.56816,-122.41519",1,-8,-122.41519,40.56816,CA,Redding,96001
"38.377411,-121.444429",1,-8,-121.444429,38.377411,CA,Sacramento,94282
"33.91355,-117.46052",1,-8,-117.46052,33.91355,CA,Riverside,92503
"38.377411,-121.444429",1,-8,-121.444429,38.377411,CA,Sacramento,95894
"34.045584,-117.75305",1,-8,-117.75305,34.045584,CA,Pomona,91766
"33.786594,-118.298662",1,-8,-118.298662,33.786594,CA,Los Angeles,90087
"36.138861,-119.894727",1,-8,-119.894727,36.138861,CA,Hanford,93231
"34.165373,-118.24532",1,-8,-118.24532,34.165373,CA,Glendale,91207
"38.911393,-122.599",1,-8,-122.599,38.911393,CA,Lower Lake,95457
"37.499175,-122.26655",1,-8,-122.26655,37.499175,CA,San Carlos,94070
"33.752886,-116.055617",1,-8,-116.055617,33.752886,CA,Indio,92202
"38.156909,-121.72075",1,-8,-121.72075,38.156909,CA,Rio Vista,94571
"33.786594,-118.298662",1,-8,-118.298662,33.786594,CA,Inglewood,90397
"34.839964,-115.967051",1,-8,-115.967051,34.839964,CA,Victorville,92393
"32.84681,-116.98983",1,-8,-116.98983,32.84681,CA,Santee,92071
"34.839964,-115.967051",1,-8,-115.967051,34.839964,CA,San Bernardino,92403
"34.002063,-118.28737",1,-8,-118.28737,34.002063,CA,Los Angeles,90037
"34.101007,-118.45077",1,-8,-118.45077,34.101007,CA,Los Angeles,90077
"33.786594,-118.298662",1,-8,-118.298662,33.786594,CA,Manhattan Beach,90267
"39.202725,-121.02076",1,-8,-121.02076,39.202725,CA,Grass Valley,95945
"35.032408,-120.49446",1,-8,-120.49446,35.032408,CA,Nipomo,93444
"38.345572,-122.96676",1,-8,-122.96676,38.345572,CA,Bodega,94922
"40.709783,-122.311628",1,-8,-122.311628,40.709783,CA,Redding,96049
"41.86235,-123.24091",1,-8,-123.24091,41.86235,CA,Seiad Valley,96086
"38.377411,-121.444429",1,-8,-121.444429,38.377411,CA,Sacramento,94261
"38.012082,-122.66389",1,-8,-122.66389,38.012082,CA,San Geronimo,94963
"38.337243,-122.30027",1,-8,-122.30027,38.337243,CA,Napa,94558
"33.786594,-118.298662",1,-8,-118.298662,33.786594,CA,Monterey Park,91756
"37.189396,-121.705327",1,-8,-121.705327,37.189396,CA,Sunnyvale,94088
"34.089059,-118.0951",1,-8,-118.0951,34.089059,CA,San Gabriel,91776
"34.190804,-118.83704",1,-8,-118.83704,34.190804,CA,Thousand Oaks,91362
"35.37825,-119.41664",1,-8,-119.41664,35.37825,CA,Buttonwillow,93206
"33.899915,-118.16231",1,-8,-118.16231,33.899915,CA,Paramount,90723
"33.289265,-117.20011",1,-8,-117.20011,33.289265,CA,Bonsall,92003
"34.060859,-118.40191",1,-8,-118.40191,34.060859,CA,Beverly Hills,90212
"33.786594,-118.298662",1,-8,-118.298662,33.786594,CA,Santa Monica,90409
"38.549256,-121.73655",1,-8,-121.73655,38.549256,CA,Davis,95616
"36.45185,-119.93651",1,-8,-119.93651,36.45185,CA,Riverdale,93656
"36.657266,-119.59309",1,-8,-119.59309,36.657266,CA,Del Rey,93616
"38.440111,-122.74563",1,-8,-122.74563,38.440111,CA,Santa Rosa,95401
"33.016928,-116.846046",1,-8,-116.846046,33.016928,CA,San Diego,92112
"38.724682,-120.79533",1,-8,-120.79533,38.724682,CA,Placerville,95667
"38.068036,-122.740988",1,-8,-122.740988,38.068036,CA,San Rafael,94912
"36.754058,-121.66472",1,-8,-121.66472,36.754058,CA,Salinas,93907
"33.531938,-117.7025",1,-8,-117.7025,33.531938,CA,Laguna Niguel,92677
"37.057708,-122.05967",1,-8,-122.05967,37.057708,CA,Felton,95018
"34.262834,-119.848555",1,-8,-119.848555,34.262834,CA,Carpinteria,93014
"33.888165,-118.1276",1,-8,-118.1276,33.888165,CA,Bellflower,90706
"33.786594,-118.298662",1,-8,-118.298662,33.786594,CA,Pasadena,91125
"33.960041,-118.3949",1,-8,-118.3949,33.960041,CA,Los Angeles,90045
"36.753177,-119.69703",1,-8,-119.69703,36.753177,CA,Fresno,93727
"33.368642,-118.40835",1,-8,-118.40835,33.368642,CA,Avalon,90704
"37.335545,-121.89877",1,-8,-121.89877,37.335545,CA,San Jose,95110
"37.189396,-121.705327",1,-8,-121.705327,37.189396,CA,Campbell,95011
"38.930207,-120.78557",1,-8,-120.78557,38.930207,CA,Georgetown,95634
"37.05297,-121.949418",1,-8,-121.949418,37.05297,CA,Scotts Valley,95067
"33.997179,-118.40145",1,-8,-118.40145,33.997179,CA,Culver City,90230
"33.786594,-118.298662",1,-8,-118.298662,33.786594,CA,Canoga Park,91305
"36.800027,-120.57996",1,-8,-120.57996,36.800027,CA,Firebaugh,93622
"36.746375,-119.639658",1,-8,-119.639658,36.746375,CA,Fresno,93707
"33.786594,-118.298662",1,-8,-118.298662,33.786594,CA,Los Angeles,90075
"41.53101,-122.95666",1,-8,-122.95666,41.53101,CA,Greenview,96037
"34.058911,-118.30848",1,-8,-118.30848,34.058911,CA,Los Angeles,90005
"33.679872,-116.17656",1,-8,-116.17656,33.679872,CA,Coachella,92236
"33.8808,-117.54068",1,-8,-117.54068,33.8808,CA,Corona,92879
"39.109272,-121.68033",1,-8,-121.68033,39.109272,CA,Yuba City,95993
"33.016928,-116.846046",1,-8,-116.846046,33.016928,CA,San Diego,92198
"34.218654,-118.62538",1,-8,-118.62538,34.218654,CA,Canoga Park,91304
"33.743168,-117.63563",1,-8,-117.63563,33.743168,CA,Silverado,92676
"38.068036,-122.740988",1,-8,-122.740988,38.068036,CA,San Quentin,94974
"34.481172,-118.42821",1,-8,-118.42821,34.481172,CA,Santa Clarita,91350
"35.324767,-118.96329",1,-8,-118.96329,35.324767,CA,Bakersfield,93307
"37.189396,-121.705327",1,-8,-121.705327,37.189396,CA,Campbell,95009
"38.098737,-122.271251",1,-8,-122.271251,38.098737,CA,Vallejo,95592
"37.889849,-121.253872",1,-8,-121.253872,37.889849,CA,Stockton,95298
"38.473857,-120.59421",1,-8,-120.59421,38.473857,CA,Volcano,95689
"38.019022,-122.54589",1,-8,-122.54589,38.019022,CA,San Rafael,94903
"35.930766,-120.10057",1,-8,-120.10057,35.930766,CA,Avenal,93204
"33.786594,-118.298662",1,-8,-118.298662,33.786594,CA,Rosemead,91771
"41.228397,-123.20187",1,-8,-123.20187,41.228397,CA,Forks Of Salmon,96031
"33.953814,-118.29158",1,-8,-118.29158,33.953814,CA,Los Angeles,90044
"37.702063,-122.07934",1,-8,-122.07934,37.702063,CA,Castro Valley,94546
"37.680181,-121.921498",1,-8,-121.921498,37.680181,CA,Oakland,94623
"33.640302,-117.769442",1,-8,-117.769442,33.640302,CA,Santa Ana,92712
"37.784827,-122.727802",1,-8,-122.727802,37.784827,CA,San Francisco,94140
"38.614088,-122.87626",1,-8,-122.87626,38.614088,CA,Healdsburg,95448
"33.785091,-117.84569",1,-8,-117.84569,33.785091,CA,Orange,92866
"36.623699,-119.30892",1,-8,-119.30892,36.623699,CA,Orange Cove,93646
"38.377411,-121.444429",1,-8,-121.444429,38.377411,CA,Sacramento,94207
"34.900151,-118.246691",1,-8,-118.246691,34.900151,CA,Rosamond,93564
"33.927471,-118.24778",1,-8,-118.24778,33.927471,CA,Los Angeles,90059
"35.294405,-118.905173",1,-8,-118.905173,35.294405,CA,Tehachapi,93581
"33.786594,-118.298662",1,-8,-118.298662,33.786594,CA,Alhambra,91802
"34.015963,-117.68737",1,-8,-117.68737,34.015963,CA,Chino,91710
"34.155625,-118.48925",1,-8,-118.48925,34.155625,CA,Encino,91436
"37.483504,-122.2144",1,-8,-122.2144,37.483504,CA,Redwood City,94063
"34.56548,-118.08549",1,-8,-118.08549,34.56548,CA,Palmdale,93550
"33.786594,-118.298662",1,-8,-118.298662,33.786594,CA,Pasadena,91121
"37.510085,-122.473404",1,-8,-122.473404,37.510085,CA,El Granada,94018
"32.783359,-115.57746",1,-8,-115.57746,32.783359,CA,El Centro,92243
"33.73297,-117.76932",1,-8,-117.76932,33.73297,CA,Irvine,92602
"34.14856,-117.26298",1,-8,-117.26298,34.14856,CA,San Bernardino,92404
"38.377411,-121.444429",1,-8,-121.444429,38.377411,CA,Sacramento,95865
"33.752886,-116.055617",1,-8,-116.055617,33.752886,CA,Lake Elsinore,92531
"34.956344,-120.45243",1,-8,-120.45243,34.956344,CA,Santa Maria,93458
"33.640302,-117.769442",1,-8,-117.769442,33.640302,CA,Fullerton,92837
"33.786594,-118.298662",1,-8,-118.298662,33.786594,CA,Long Beach,90847
"34.262834,-119.848555",1,-8,-119.848555,34.262834,CA,Santa Barbara,93140
"35.714118,-118.48416",1,-8,-118.48416,35.714118,CA,Wofford Heights,93285
"34.162124,-119.207364",1,-8,-119.207364,34.162124,CA,Port Hueneme Cbc Base,93043
"40.474951,-120.67685",1,-8,-120.67685,40.474951,CA,Susanville,96130
"37.084347,-122.08524",1,-8,-122.08524,37.084347,CA,Ben Lomond,95005
"34.029313,-118.24182",1,-8,-118.24182,34.029313,CA,Los Angeles,90021
"37.889849,-121.253872",1,-8,-121.253872,37.889849,CA,Stockton,95267
"33.786594,-118.298662",1,-8,-118.298662,33.786594,CA,Los Angeles,90084
"38.240477,-121.56507",1,-8,-121.56507,38.240477,CA,Walnut Grove,95690
"38.909605,-121.07971",1,-8,-121.07971,38.909605,CA,Auburn,95603
"35.294405,-118.905173",1,-8,-118.905173,35.294405,CA,Bakersfield,93381
"33.640302,-117.769442",1,-8,-117.769442,33.640302,CA,Tustin,92781
"36.701905,-120.42801",1,-8,-120.42801,36.701905,CA,Mendota,93640
"38.639643,-120.84556",1,-8,-120.84556,38.639643,CA,El Dorado,95623
"37.381144,-122.334825",1,-8,-122.334825,37.381144,CA,San Mateo,94406
"37.381144,-122.334825",1,-8,-122.334825,37.381144,CA,San Carlos,94071
"33.786594,-118.298662",1,-8,-118.298662,33.786594,CA,Agoura Hills,91376
"33.714421,-117.069361",1,-8,-117.069361,33.714421,CA,Winchester,92396
"37.806427,-122.28898",1,-8,-122.28898,37.806427,CA,Oakland,94607
"34.262834,-119.848555",1,-8,-119.848555,34.262834,CA,Goleta,93118
"33.890566,-118.23666",1,-8,-118.23666,33.890566,CA,Compton,90220
"39.383027,-123.07856",1,-8,-123.07856,39.383027,CA,Potter Valley,95469
"36.831723,-119.83198",1,-8,-119.83198,36.831723,CA,Fresno,93711
"37.941424,-122.36628",1,-8,-122.36628,37.941424,CA,Richmond,94801
"37.722279,-122.15702",1,-8,-122.15702,37.722279,CA,San Leandro,94577
"37.378341,-122.02398",1,-8,-122.02398,37.378341,CA,Sunnyvale,94086
"33.958464,-118.30998",1,-8,-118.30998,33.958464,CA,Los Angeles,90047
"33.650813,-117.81771",1,-8,-117.81771,33.650813,CA,Irvine,92612
"33.786594,-118.298662",1,-8,-118.298662,33.786594,CA,Van Nuys,91410
"32.786759,-114.62591",1,-8,-114.62591,32.786759,CA,Winterhaven,92283
"38.706727,-122.125",1,-8,-122.125,38.706727,CA,Capay,95607
"36.746375,-119.639658",1,-8,-119.639658,36.746375,CA,Fresno,93790
"33.786594,-118.298662",1,-8,-118.298662,33.786594,CA,Los Angeles,90076
"33.786594,-118.298662",1,-8,-118.298662,33.786594,CA,Torrance,90509
"38.40097,-120.64952",1,-8,-120.64952,38.40097,CA,Pine Grove,95665
"33.640302,-117.769442",1,-8,-117.769442,33.640302,CA,Orange,92856
"40.79348,-124.19929",1,-8,-124.19929,40.79348,CA,Samoa,95564
"34.122658,-118.11296",1,-8,-118.11296,34.122658,CA,San Marino,91108
"33.735688,-117.42049",1,-8,-117.42049,33.735688,CA,Corona,91719
"34.023039,-118.20231",1,-8,-118.20231,34.023039,CA,Los Angeles,90023
"37.1363,-118.27335",1,-8,-118.27335,37.1363,CA,Big Pine,93513
"35.221085,-120.636399",1,-8,-120.636399,35.221085,CA,San Luis Obispo,93409
"38.394464,-120.79015",1,-8,-120.79015,38.394464,CA,Sutter Creek,95685
"36.059363,-119.32025",1,-8,-119.32025,36.059363,CA,Tipton,93272
"33.828766,-118.31367",1,-8,-118.31367,33.828766,CA,Torrance,90501
"37.954823,-121.30735",1,-8,-121.30735,37.954823,CA,Stockton,95203
"33.821318,-116.38023",1,-8,-116.38023,33.821318,CA,Thousand Palms,92276
"37.381144,-122.334825",1,-8,-122.334825,37.381144,CA,Daly City,94016
"38.377411,-121.444429",1,-8,-121.444429,38.377411,CA,Sacramento,94288
"32.875267,-116.42826",1,-8,-116.42826,32.875267,CA,Mount Laguna,91948
"37.307742,-121.99976",1,-8,-121.99976,37.307742,CA,San Jose,95129
"37.65778,-121.73011",1,-8,-121.73011,37.65778,CA,Livermore,94550
"36.35433,-121.132928",1,-8,-121.132928,36.35433,CA,Monterey,93942
"33.673979,-117.59457",1,-8,-117.59457,33.673979,CA,Trabuco Canyon,92678
"38.658204,-122.40441",1,-8,-122.40441,38.658204,CA,Pope Valley,94567
"34.106965,-117.2975",1,-8,-117.2975,34.106965,CA,San Bernardino,92410
"34.032383,-119.1343",1,-8,-119.1343,34.032383,CA,Simi Valley,93093
"37.926509,-122.3408",1,-8,-122.3408,37.926509,CA,Richmond,94804
"37.892476,-122.47541",1,-8,-122.47541,37.892476,CA,Belvedere Tiburon,94920
"33.883314,-117.85446",1,-8,-117.85446,33.883314,CA,Placentia,92870
"33.786594,-118.298662",1,-8,-118.298662,33.786594,CA,Los Angeles,90174
"37.40679,-122.07461",1,-8,-122.07461,37.40679,CA,Mountain View,94043
"38.245844,-122.101917",1,-8,-122.101917,38.245844,CA,Fairfield,94534
"36.619954,-121.65145",1,-8,-121.65145,36.619954,CA,Salinas,93908
"34.048351,-118.2943",1,-8,-118.2943,34.048351,CA,Los Angeles,90006
"32.871846,-117.229119",1,-8,-117.229119,32.871846,CA,San Diego,92161
"36.746375,-119.639658",1,-8,-119.639658,36.746375,CA,Fresno,93740
"40.281369,-124.08998",1,-8,-124.08998,40.281369,CA,Honeydew,95545
"34.490004,-118.300826",1,-8,-118.300826,34.490004,CA,Santa Clarita,91390
"34.020711,-117.89932",1,-8,-117.89932,34.020711,CA,West Covina,91792
"37.680181,-121.921498",1,-8,-121.921498,37.680181,CA,Oakland,94666
"38.335515,-122.9392",1,-8,-122.9392,38.335515,CA,Valley Ford,94972
"34.101608,-118.05606",1,-8,-118.05606,34.101608,CA,Temple City,91780
"34.046992,-117.481",1,-8,-117.481,34.046992,CA,Fontana,92337
"36.813456,-119.70826",1,-8,-119.70826,36.813456,CA,Clovis,93612
"37.016943,-121.56581",1,-8,-121.56581,37.016943,CA,Gilroy,95020
"34.421537,-118.419181",1,-8,-118.419181,34.421537,CA,Santa Clarita,91387
"39.207828,-121.20021",1,-8,-121.20021,39.207828,CA,Penn Valley,95946
"37.189396,-121.705327",1,-8,-121.705327,37.189396,CA,Mountain View,94035
"33.819818,-117.11778",1,-8,-117.11778,33.819818,CA,Nuevo,92567
"34.080143,-117.73861",1,-8,-117.73861,34.080143,CA,Pomona,91767
"38.317665,-121.16166",1,-8,-121.16166,38.317665,CA,Herald,95638
"38.184096,-120.021342",1,-8,-120.021342,38.184096,CA,Strawberry,95375
"33.796153,-117.00046",1,-8,-117.00046,33.796153,CA,San Jacinto,92582
"33.866314,-118.39968",1,-8,-118.39968,33.866314,CA,Hermosa Beach,90254
"38.377411,-121.444429",1,-8,-121.444429,38.377411,CA,Sacramento,94290
"36.746375,-119.639658",1,-8,-119.639658,36.746375,CA,Fresno,93759
"37.364625,-119.51261",1,-8,-119.51261,37.364625,CA,Bass Lake,93604
"33.016928,-116.846046",1,-8,-116.846046,33.016928,CA,Spring Valley,91979
"38.110355,-120.45436",1,-8,-120.45436,38.110355,CA,Douglas Flat,95229
"38.347701,-123.05869",1,-8,-123.05869,38.347701,CA,Bodega Bay,94923
"36.802534,-120.01902",1,-8,-120.01902,36.802534,CA,Biola,93606
"37.932123,-121.70381",1,-8,-121.70381,37.932123,CA,Brentwood,94513
"37.719581,-122.41085",1,-8,-122.41085,37.719581,CA,San Francisco,94134
"38.817357,-120.92213",1,-8,-120.92213,38.817357,CA,Lotus,95651
"34.032383,-119.1343",1,-8,-119.1343,34.032383,CA,Simi Valley,93099
"33.786594,-118.298662",1,-8,-118.298662,33.786594,CA,Toluca Lake,91610
"36.746375,-119.639658",1,-8,-119.639658,36.746375,CA,Fresno,93709
"35.664837,-120.64542",1,-8,-120.64542,35.664837,CA,Paso Robles,93447
"34.262834,-119.848555",1,-8,-119.848555,34.262834,CA,Santa Barbara,93130
"36.746375,-119.639658",1,-8,-119.639658,36.746375,CA,Fresno,93794
"33.640302,-117.769442",1,-8,-117.769442,33.640302,CA,Laguna Niguel,92607
"34.229288,-117.52082",1,-8,-117.52082,34.229288,CA,Lytle Creek,92358
"35.340759,-119.06497",1,-8,-119.06497,35.340759,CA,Bakersfield,93309
"37.920852,-121.723919",1,-8,-121.723919,37.920852,CA,Antioch,94531
"33.883223,-117.73856",1,-8,-117.73856,33.883223,CA,Yorba Linda,92887
"38.377411,-121.444429",1,-8,-121.444429,38.377411,CA,Sacramento,94271
"33.016492,-117.20264",1,-8,-117.20264,33.016492,CA,Rancho Santa Fe,92067
"37.521832,-120.46555",1,-8,-120.46555,37.521832,CA,Snelling,95369
"37.189396,-121.705327",1,-8,-121.705327,37.189396,CA,San Jose,95102
"37.784827,-122.727802",1,-8,-122.727802,37.784827,CA,San Francisco,94154
"36.697311,-119.01864",1,-8,-119.01864,36.697311,CA,Miramonte,93641
"35.87368,-119.26362",1,-8,-119.26362,35.87368,CA,Earlimart,93219
"33.752886,-116.055617",1,-8,-116.055617,33.752886,CA,Norco,91760
"39.26599,-120.64145",1,-8,-120.64145,39.26599,CA,Norden,95724
"38.90392,-119.995024",1,-8,-119.995024,38.90392,CA,South Lake Tahoe,96151
"34.029561,-117.93975",1,-8,-117.93975,34.029561,CA,La Puente,91744
"33.786594,-118.298662",1,-8,-118.298662,33.786594,CA,Glendale,91225
"35.599177,-117.68065",1,-8,-117.68065,35.599177,CA,Ridgecrest,93555
"33.016928,-116.846046",1,-8,-116.846046,33.016928,CA,Coronado,92178
"33.943615,-117.37239",1,-8,-117.37239,33.943615,CA,Riverside,92506
"33.666269,-117.9693",1,-8,-117.9693,33.666269,CA,Huntington Beach,92646
"37.378234,-120.617808",1,-8,-120.617808,37.378234,CA,Merced,95344
"38.619545,-121.961532",1,-8,-121.961532,38.619545,CA,Davis,95617
"38.641223,-121.4417",1,-8,-121.4417,38.641223,CA,Sacramento,95838
"34.240353,-118.55038",1,-8,-118.55038,34.240353,CA,Northridge,91324
"34.208142,-118.4011",1,-8,-118.4011,34.208142,CA,North Hollywood,91605
"37.784827,-122.727802",1,-8,-122.727802,37.784827,CA,San Francisco,94172
"37.381144,-122.334825",1,-8,-122.334825,37.381144,CA,San Mateo,94407
"34.447959,-117.19222",1,-8,-117.19222,34.447959,CA,Apple Valley,92308
"37.784827,-122.727802",1,-8,-122.727802,37.784827,CA,San Francisco,94156
"34.533321,-117.94904",1,-8,-117.94904,34.533321,CA,Littlerock,93543
"37.463177,-119.64498",1,-8,-119.64498,37.463177,CA,Fish Camp,93623
"38.71203,-121.0023",1,-8,-121.0023,38.71203,CA,Rescue,95672
"33.640302,-117.769442",1,-8,-117.769442,33.640302,CA,Irvine,92697
"38.550098,-121.37492",1,-8,-121.37492,38.550098,CA,Sacramento,95826
"38.902873,-121.29795",1,-8,-121.29795,38.902873,CA,Lincoln,95648
"37.189396,-121.705327",1,-8,-121.705327,37.189396,CA,San Jose,95190
"36.495772,-117.88289",1,-8,-117.88289,36.495772,CA,Keeler,93530
"37.834724,-122.28316",1,-8,-122.28316,37.834724,CA,Emeryville,94608
"37.76313,-122.458582",1,-8,-122.458582,37.76313,CA,San Francisco,94143
"37.60396,-120.937052",1,-8,-120.937052,37.60396,CA,Modesto,95397
"38.509569,-122.3539",1,-8,-122.3539,38.509569,CA,Napa,94581
"33.752886,-116.055617",1,-8,-116.055617,33.752886,CA,Palm Springs,92292
"37.784827,-122.727802",1,-8,-122.727802,37.784827,CA,San Francisco,94135
"37.257643,-121.89072",1,-8,-121.89072,37.257643,CA,San Jose,95118
"33.640302,-117.769442",1,-8,-117.769442,33.640302,CA,Irvine,92616
"39.033312,-120.82172",1,-8,-120.82172,39.033312,CA,Foresthill,95631
"38.377411,-121.444429",1,-8,-121.444429,38.377411,CA,Sacramento,94298
"37.889849,-121.253872",1,-8,-121.253872,37.889849,CA,Lodi,95241
"33.92018,-118.14291",1,-8,-118.14291,33.92018,CA,Downey,90242
"37.776528,-120.84756",1,-8,-120.84756,37.776528,CA,Oakdale,95361
"38.200193,-121.23505",1,-8,-121.23505,38.200193,CA,Acampo,95220
"40.691578,-123.87189",1,-8,-123.87189,40.691578,CA,Kneeland,95549
"34.050411,-118.21195",1,-8,-118.21195,34.050411,CA,Los Angeles,90033
"34.287679,-119.02059",1,-8,-119.02059,34.287679,CA,Somis,93066
"33.640302,-117.769442",1,-8,-117.769442,33.640302,CA,La Habra,90632
"40.360583,-122.33544",1,-8,-122.33544,40.360583,CA,Cottonwood,96022
"38.117065,-122.56316",1,-8,-122.56316,38.117065,CA,Novato,94945
"33.817481,-118.0399",1,-8,-118.0399,33.817481,CA,Cypress,90630
"37.317278,-122.36526",1,-8,-122.36526,37.317278,CA,San Gregorio,94074
"37.32477,-122.184276",1,-8,-122.184276,37.32477,CA,Palo Alto,95022
"37.189396,-121.705327",1,-8,-121.705327,37.189396,CA,Santa Clara,95056
